name,entity_subtype,country,latitude,longitude,has_thumbnail,page_views,entity_type,total_area,population,is_test
Tancredo Neves Pantheon of the Fatherland and Freedom,Monument,Brazil,-15.8017,-47.8603,1,7521.0,structure,,,False
Sembuwatta Lake,AmusementParkAttraction,Sri_Lanka,7.43694,80.6997,1,16340.0,structure,,,False
Ford Rotunda,AmusementParkAttraction,United_States,42.3121,-83.1767,1,40773.0,structure,,,False
Afsluitdijk,Bridge,Netherlands,53.0,5.16667,1,227321.0,structure,,,False
Mudeirej Bridge,Bridge,Lebanon,33.8008,35.7271,1,5623.0,structure,,,True
Cyclorama Building at Gettysburg,Bridge,United_States,39.8158,-77.2341,1,18239.0,structure,,,False
Prora,SkiArea,Germany,54.4392,13.5756,1,372086.0,structure,,,False
Four Seasons Resort Bora Bora,SkiArea,French_Polynesia,-16.472,-151.707,1,70931.0,structure,,,False
Kurumba Maldives,SkiArea,Maldives,4.22639,73.5194,1,20138.0,structure,,,False
Banasura Hill Resort,SkiArea,India,11.7136,75.9231,1,13180.0,structure,,,False
Floridita,Restaurant,Cuba,23.1373,-82.3573,1,71544.0,structure,,,False
Krazy Kat Klub,Restaurant,United_States,38.904,-77.031,1,9552.0,structure,,,False
Under (restaurant),Restaurant,Norway,58.0409,7.1546,1,8078.0,structure,,,False
Mammy's Cupboard,Restaurant,United_States,31.4781,-91.3714,1,26598.0,structure,,,False
Carandiru Penitentiary,Prison,Brazil,-23.5083,-46.6236,1,95695.0,structure,,,False
Moyamensing Prison,Prison,United_States_of_America,39.9319,-75.1612,1,59030.0,structure,,,False
Cellular Jail,Prison,India,11.675,92.748,1,647350.0,structure,,,False
Welikada Prison,Prison,Sri_Lanka,6.92194,79.8803,0,15888.0,structure,,,False
Santa Apolónia railway station,RailwayLine,Portugal,38.7136,-9.12317,1,13900.0,structure,,,False
Funicular dos Guindais,RailwayLine,Portugal,41.141,-8.6095,1,12964.0,structure,,,False
M1 (Queensland),RailwayLine,Australia,-27.4351,153.089,1,19534.0,structure,,,False
Stratford International station,RailwayLine,United_Kingdom,51.5448,-0.0086,1,108480.0,structure,,,False
Dukes Highway,RailwayLine,Australia,-35.2723,139.46,0,8434.0,structure,,,False
Charing Cross railway station,RailwayLine,United_Kingdom,51.508,-0.125,1,142649.0,structure,,,False
Nazaré Funicular,RailwayLine,Portugal,39.605,-9.07442,1,13793.0,structure,,,False
Semanggi Interchange,RoadJunction,Indonesia,-6.21975,106.814,1,6268.0,structure,,,False
St Kilda Junction,RoadJunction,Australia,-37.855,144.982,1,7406.0,structure,,,False
Canning Town station,RoadJunction,United_Kingdom,51.514,0.0083,1,46518.0,structure,,,True
Light Horse Interchange,RoadJunction,Australia,-33.7981,150.854,1,31275.0,structure,,,False
West Croydon station,RoadJunction,United_Kingdom,51.3783,-0.102544,1,38100.0,structure,,,False
Finsbury Park station,RoadJunction,United_Kingdom,51.5647,-0.106366,1,83570.0,structure,,,True
Sir Roden Cutler VC Memorial Interchange,RoadJunction,Australia,-33.9511,150.879,0,6138.0,structure,,,False
Zero Point Interchange,RoadJunction,Pakistan,33.6936,73.065,1,6654.0,structure,,,False
Shahba Mall,ShoppingMall,Syria,36.2581,37.0958,1,13699.0,structure,,,False
Gateway Theatre of Shopping,ShoppingMall,South_Africa,-29.7256,31.0665,1,42459.0,structure,,,False
Menlyn Park,ShoppingMall,South_Africa,-25.7831,28.2752,1,36953.0,structure,,,False
"The Verge, Singapore",ShoppingMall,Singapore,1.30511,103.851,1,11933.0,structure,,,False
1 Utama,ShoppingMall,Malaysia,3.14815,101.616,1,130179.0,structure,,,True
Brooklyn Mall,ShoppingMall,South_Africa,-25.7717,28.2323,0,6879.0,structure,,,True
North Street Arcade,ShoppingMall,Northern_Ireland,54.6018,-5.92938,1,5714.0,structure,,,False
The Fullerton Waterboat House,ShoppingMall,Singapore,1.28711,103.854,1,7412.0,structure,,,True
"Chapel Street, Melbourne",ShoppingMall,Australia,-37.8348,144.997,1,29482.0,structure,,,False
Sundial St. Pete,ShoppingMall,United_States,27.7742,-82.6347,1,6775.0,structure,,,False
Thanet Wind Farm,Airport,England,51.4306,1.6331,1,24894.0,structure,,,True
St Ives Lifeboat Station,Airport,United_Kingdom,50.2128,-5.4795,1,5860.0,structure,,,False
Sennen Cove Lifeboat Station,Airport,United_Kingdom,50.0779,-5.70373,1,5346.0,structure,,,False
Rend Lake,Airport,United_States,38.0367,-88.9667,1,29508.0,structure,,,False
Great Yarmouth and Gorleston Lifeboat Station,Airport,England,52.5754,1.73204,1,5565.0,structure,,,False
Lynmouth Lifeboat Station,Airport,United_Kingdom,51.2309,-3.8312,1,9429.0,structure,,,True
Schloss Johannisburg,MilitaryStructure,Germany,49.9761,9.14167,1,26279.0,structure,,,False
Schloss Weißenstein,MilitaryStructure,Germany,49.763,10.821,1,18155.0,structure,,,False
Schloss Muskau,MilitaryStructure,Germany,51.5503,14.7267,1,7205.0,structure,,,False
Saranta Kolones,MilitaryStructure,Cyprus,34.7577,32.4096,1,5103.0,structure,,,False
Whitfield Barracks,MilitaryStructure,Hong_Kong,22.2993,114.17,1,7270.0,structure,,,False
Castillo de Jagua,MilitaryStructure,Cuba,22.0667,-80.4667,1,10614.0,structure,,,False
Wörth Castle,MilitaryStructure,Switzerland,47.6768,8.61363,1,8740.0,structure,,,False
Petrovaradin Fortress,MilitaryStructure,Serbia,45.2522,19.8622,1,58164.0,structure,,,False
Sparrenberg Castle,MilitaryStructure,Germany,52.0149,8.52678,1,13195.0,structure,,,False
Ehrenbreitstein Fortress,MilitaryStructure,Germany,50.365,7.615,1,53548.0,structure,,,False
Fort Belan,MilitaryStructure,Wales,53.1224,-4.33269,1,9290.0,structure,,,False
Fort Beauregard,MilitaryStructure,United_States,31.7744,-91.8207,0,6378.0,structure,,,False
Fort Pilar,MilitaryStructure,Philippines,6.90111,122.082,1,63461.0,structure,,,False
Fort Rotterdam,MilitaryStructure,Indonesia,-5.13417,119.406,1,32180.0,structure,,,True
Kluže Fortress,MilitaryStructure,Slovenia,46.3611,13.5898,1,7114.0,structure,,,True
Fort Amsterdam (Curaçao),MilitaryStructure,Curaçao,12.1047,-68.9345,1,15311.0,structure,,,False
Khaplu Palace,MilitaryStructure,Pakistan,35.1517,76.3353,1,40762.0,structure,,,False
Laxmangarh Fort,MilitaryStructure,India,27.8238,75.0248,1,11421.0,structure,,,False
Alamut Castle,MilitaryStructure,Iran,36.4447,50.5861,1,291807.0,structure,,,False
Baltit Fort,MilitaryStructure,Pakistan,36.3256,74.6697,1,58821.0,structure,,,True
"Landmark Theatre (Syracuse, New York)",Cinema,United_States,43.0474,-76.1526,1,14093.0,structure,,,True
Eden Court Theatre,Cinema,Scotland,57.4728,-4.23028,1,11586.0,structure,,,False
Roseland Theatre (Nova Scotia),Cinema,Canada,45.5865,-62.6452,1,13572.0,structure,,,True
Screen Cinema,Cinema,Republic_of_Ireland,53.3462,-6.25684,1,5199.0,structure,,,False
Busan Cinema Center,Cinema,South_Korea,35.1712,129.127,0,18692.0,structure,,,False
Irish Film Institute,Cinema,Republic_of_Ireland,53.3446,-6.2649,1,11597.0,structure,,,False
"Proctor's Theatre (Schenectady, New York)",Cinema,United_States,42.8122,-73.9419,1,17761.0,structure,,,True
Warner Centre,Cinema,United_States,40.4401,-79.9995,1,5855.0,structure,,,True
Warner Grand Theatre,Cinema,United_States,33.7386,-118.291,1,9191.0,structure,,,False
"Warner Theatre (Erie, Pennsylvania)",Cinema,United_States,42.1272,-80.0833,1,8304.0,structure,,,False
Fox Performing Arts Center,Cinema,United_States,33.9839,-117.375,1,22791.0,structure,,,False
"Fox Theatre (Fullerton, California)",Cinema,United_States,33.8744,-117.924,1,8203.0,structure,,,False
Nuart Theatre,Cinema,United_States_of_America,34.0465,-118.448,1,20114.0,structure,,,False
California Theatre (San Bernardino),Cinema,United_States,34.1064,-117.295,1,11905.0,structure,,,False
Parkway Theatre (Baltimore),Cinema,United_States,39.3106,-76.6169,1,9559.0,structure,,,False
Harris Theater (Pittsburgh),Cinema,United_States,40.443,-79.9987,1,5054.0,structure,,,False
Light House Cinema,Cinema,Republic_of_Ireland,53.3487,-6.27914,1,7663.0,structure,,,False
"Globe Theatre, Stockton-on-Tees",Cinema,England,54.5671,-1.31324,1,7106.0,structure,,,False
Embassy Theatre (Fort Wayne),Cinema,United_States,41.0756,-85.14,1,11783.0,structure,,,False
"Riviera Theatre (North Tonawanda, New York)",Cinema,United_States,43.0239,-78.8772,1,8365.0,structure,,,False
"Ritz (Austin, Texas)",Cinema,United_States,30.2673,-97.7396,1,5309.0,structure,,,False
Peery's Egyptian Theater,Cinema,United_States,41.2218,-111.971,1,7334.0,structure,,,False
Benedum Center,Cinema,United_States,40.4428,-79.9997,1,55603.0,structure,,,False
Savoy Cinema,Cinema,Republic_of_Ireland,53.3511,-6.26056,1,22170.0,structure,,,False
Queen's Film Theatre,Cinema,Northern_Ireland,54.585,-5.934,1,5820.0,structure,,,False
Fox Tucson Theatre,Cinema,United_States,32.2236,-110.972,1,22511.0,structure,,,False
Paisley Abbey,ReligiousBuilding,Scotland,55.845,-4.42056,1,86532.0,structure,,,False
"San Vittore al Corpo, Milan",ReligiousBuilding,Italy,45.4627,9.17008,1,6069.0,structure,,,False
West Point Jewish Chapel,ReligiousBuilding,United_States,41.3928,-73.9625,1,5989.0,structure,,,False
Kremikovtsi Monastery,ReligiousBuilding,Bulgaria,42.7971,23.5075,1,12477.0,structure,,,False
Caldey Abbey,ReligiousBuilding,Wales,51.6373,-4.68434,1,18667.0,structure,,,False
San Pellegrino in Vaticano,ReligiousBuilding,Italy,41.905,12.457,1,9298.0,structure,,,False
Basilica of Our Lady of Piat,ReligiousBuilding,Philippines,17.787,121.48,1,20172.0,structure,,,False
Convent of Christ (Tomar),ReligiousBuilding,Portugal,39.6047,-8.4175,1,79535.0,structure,,,False
Sainte Marie de La Tourette,ReligiousBuilding,France,45.8194,4.6225,1,74495.0,structure,,,False
Saharna Monastery,ReligiousBuilding,Moldova,47.695,28.9656,1,6922.0,structure,,,False
Lisbon Synagogue,ReligiousBuilding,Portugal,38.7203,-9.15336,1,17353.0,structure,,,False
Luar Batang Mosque,ReligiousBuilding,Indonesia,-6.12427,106.807,1,5622.0,structure,,,True
Căpriana monastery,ReligiousBuilding,Moldova,47.1166,28.5106,1,9710.0,structure,,,False
Ampleforth Abbey,ReligiousBuilding,England,54.2018,-1.0847,1,38489.0,structure,,,False
Sempringham Priory,ReligiousBuilding,England,52.8783,-0.3575,1,10423.0,structure,,,False
Inkerman Cave Monastery,ReligiousBuilding,Ukraine,44.6037,33.6074,1,6273.0,structure,,,False
St. Benedictusberg Abbey,ReligiousBuilding,Netherlands,50.8014,5.9725,1,8146.0,structure,,,False
Pochayiv Lavra,ReligiousBuilding,Ukraine,50.0047,25.5069,1,24760.0,structure,,,False
Khalsa Diwan Sikh Temple,ReligiousBuilding,Hong_Kong,22.2745,114.178,1,9098.0,structure,,,False
Jerónimos Monastery,ReligiousBuilding,Portugal,38.6978,-9.20611,1,309854.0,structure,,,True
Flaxley Abbey,ReligiousBuilding,United_Kingdom,51.8361,-2.45194,1,10568.0,structure,,,False
Fort Augustus Abbey,ReligiousBuilding,Scotland,57.145,-4.676,1,25868.0,structure,,,True
Łańcut Synagogue,ReligiousBuilding,Poland,50.0675,22.2317,1,5682.0,structure,,,False
Gurdwara Janam Asthan,ReligiousBuilding,Pakistan,31.4475,73.6972,1,97920.0,structure,,,False
Gurdwara Panja Sahib,ReligiousBuilding,Pakistan,33.8208,72.6897,1,116434.0,structure,,,False
Sant'Andrea delle Fratte,Museum,Italy,41.9036,12.4836,1,27382.0,structure,,,False
Santa Trinita,Museum,Italy,43.7702,11.2507,1,29673.0,structure,,,False
Santa Maria sopra Minerva,Museum,Italy,41.8981,12.4783,1,128044.0,structure,,,False
Santa Maria della Salute,Museum,Italy,45.4308,12.3344,1,163456.0,structure,,,False
Santa Maria della Pace,Museum,Italy,41.8999,12.4716,1,42673.0,structure,,,True
Santa Maria del Popolo,Museum,Italy,41.9114,12.4764,1,91422.0,structure,,,False
Santa Maria Gloriosa dei Frari,Museum,Italy,45.4367,12.3261,1,84501.0,structure,,,False
Schloss Wilhelmshöhe,Museum,Germany,51.315,9.416,1,25214.0,structure,,,False
San Luigi dei Francesi,Museum,Italy,41.8997,12.4747,1,86443.0,structure,,,False
San Lorenzo in Lucina,Museum,Italy,41.9034,12.4787,1,21062.0,structure,,,True
San Lorenzo in Damaso,Museum,Italy,41.8969,12.472,1,16172.0,structure,,,False
San Giovanni dei Fiorentini,Museum,Italy,41.8997,12.465,1,21240.0,structure,,,False
Quaid-e-Azam House,Museum,Pakistan,24.8511,67.0328,1,44145.0,structure,,,False
Bayt Al-Suhaymi,Museum,Egypt,30.0522,31.2625,1,13844.0,structure,,,False
Casa de Segunda,Museum,Philippines,13.939,121.162,1,11583.0,structure,,,False
Casa Bizantina,Museum,Philippines,14.5991,120.388,1,6082.0,structure,,,True
San Pietro in Vincoli,Museum,Italy,41.8939,12.4931,1,152459.0,structure,,,False
Grand Egyptian Museum,Museum,Egypt,29.9936,31.1197,1,413436.0,structure,,,False
Ishinomori Manga Museum,Museum,Japan,38.4296,141.311,1,6216.0,structure,,,False
James R. Thompson Center,Museum,United_States,41.8853,-87.6317,1,86360.0,structure,,,True
Bildmuseet,Museum,Sweden,63.8283,20.2908,1,5239.0,structure,,,False
Hayward Gallery,Museum,United_Kingdom,51.5061,-0.115556,1,87092.0,structure,,,False
Mikhail Bulgakov Museum,Museum,Ukraine,50.4608,30.5147,1,8854.0,structure,,,False
Osaka Maritime Museum,Museum,Japan,34.64,135.405,1,8525.0,structure,,,False
"Red Lodge Museum, Bristol",Museum,England,51.4556,-2.59958,1,11037.0,structure,,,False
Swedish Museum of Natural History,Museum,Sweden,59.3689,18.0536,1,27770.0,structure,,,False
Seoul National University Museum of Art,Museum,South_Korea,37.4665,126.95,1,6521.0,structure,,,False
Château de Malmaison,Museum,France,48.8708,2.16694,1,167232.0,structure,,,False
The New Art Gallery Walsall,Museum,England,52.5857,-1.98591,1,15822.0,structure,,,False
Siena Cathedral,Museum,Italy,43.3177,11.329,1,256024.0,structure,,,True
Swedish Army Museum,Museum,Sweden,59.3347,18.0803,1,32505.0,structure,,,False
Museo Nacional de Bellas Artes de La Habana,Museum,Cuba,23.1402,-82.3572,1,23379.0,structure,,,False
Toi Gold Museum,Museum,Japan,34.9083,138.793,1,20768.0,structure,,,False
Museum of the Revolution (Cuba),Museum,Cuba,23.1417,-82.3567,1,67515.0,structure,,,False
Cappella Sansevero,Museum,Italy,40.8492,14.2549,1,93021.0,structure,,,False
Amdavad ni Gufa,Museum,India,23.0361,72.5494,1,60975.0,structure,,,False
Dumfries Museum,Museum,Scotland,55.0652,-3.6146,1,5897.0,structure,,,False
Siliwangi Stadium,Stadium,Indonesia,-6.91031,107.619,1,6164.0,structure,,,True
Mandala Krida Stadium,Stadium,Indonesia,-7.79583,110.384,1,8034.0,structure,,,True
Muliaage,Stadium,Maldives,4.1775,73.5125,1,14740.0,structure,,,False
Stade de France,Stadium,France,48.9245,2.3602,1,705855.0,structure,,,False
Mole Antonelliana,Stadium,Italy,45.0689,7.69306,1,161682.0,structure,,,False
Stade du Fort Carré,Stadium,France,43.5908,7.12556,1,5245.0,structure,,,False
Stornoway (residence),Stadium,Canada,45.4528,-75.6786,1,102653.0,structure,,,False
Stadionul Dan Păltinișanu,Stadium,Romania,45.7405,21.2442,1,22688.0,structure,,,False
Çırağan Palace,Stadium,Turkey,41.0444,29.0167,1,89785.0,structure,,,False
Barabati Stadium,Stadium,India,20.4811,85.8686,1,175337.0,structure,,,False
UCCU Center,Stadium,United_States,40.2787,-111.717,1,14727.0,structure,,,True
Waverley Park,Stadium,Australia,-37.9256,145.189,1,96799.0,structure,,,False
"Government House, Sydney",Stadium,Australia,-33.8599,151.215,1,51352.0,structure,,,False
Williams Tower,Stadium,United_States,29.7372,-95.4614,1,117551.0,structure,,,False
Stadio Adriatico – Giovanni Cornacchia,Stadium,Italy,42.4553,14.2295,1,12903.0,structure,,,False
"Government House, Hong Kong",Stadium,Hong_Kong,22.2787,114.157,1,75087.0,structure,,,True
El Gigante de Alberdi,Stadium,Argentina,-31.4035,-64.2063,1,11189.0,structure,,,True
"Presidential Palace, Naypyidaw",Stadium,Myanmar,19.7675,96.1186,1,16605.0,structure,,,False
Public Trust Building,Stadium,New_Zealand,-41.281,174.776,1,5768.0,structure,,,False
Quezon City Reception House,Stadium,Philippines,14.6228,121.033,1,27761.0,structure,,,False
San Siro,Stadium,Italy,45.4781,9.124,1,1161124.0,structure,,,False
Belfast City Hall,Stadium,Northern_Ireland,54.5964,-5.93,1,76154.0,structure,,,True
Jubilee Oval,Stadium,Australia,-33.9719,151.129,1,83937.0,structure,,,False
Bessastaðir,Stadium,Iceland,64.1058,-21.9956,1,30876.0,structure,,,False
Rideau Cottage,Stadium,Canada,45.4437,-75.6827,1,308379.0,structure,,,False
Ripon Building,Stadium,India,13.0817,80.2716,1,79079.0,structure,,,False
Eastville Stadium,Stadium,England,51.4724,-2.56403,1,32955.0,structure,,,False
10 Downing Street,Stadium,United_Kingdom,51.5033,-0.1275,1,1823935.0,structure,,,False
Estadio Gasómetro,Stadium,Argentina,-34.635,-58.4235,1,11631.0,structure,,,False
Gelora Bangkalan Stadium,Stadium,Indonesia,-7.04339,112.739,1,5099.0,structure,,,False
Estadio Monumental José Fierro,Stadium,Argentina,-26.8128,-65.1992,1,8999.0,structure,,,False
Mansudae Assembly Hall,Stadium,North_Korea,39.0286,125.749,1,27618.0,structure,,,False
Mariinsky Theatre,Stadium,Russia,59.9256,30.2961,1,151026.0,structure,,,True
Nashville Municipal Auditorium,Stadium,United_States,36.1676,-86.7822,1,61301.0,structure,,,False
Negros Occidental Provincial Capitol,Stadium,Philippines,10.6768,122.951,1,12821.0,structure,,,False
"Nehru Stadium, Guwahati",Stadium,India,26.1806,91.758,1,49730.0,structure,,,True
Rashtrapati Bhavan,Stadium,India,28.6144,77.1997,1,1085379.0,structure,,,False
Wollongong Showground,Stadium,Australia,-34.4278,150.902,1,30793.0,structure,,,False
Sealand Road,Stadium,England,53.1964,-2.9098,1,14633.0,structure,,,False
Worcester Memorial Auditorium,Stadium,United_States,42.2718,-71.801,1,8991.0,structure,,,False
Teladan Stadium,Stadium,Indonesia,3.56472,98.6956,1,5438.0,structure,,,False
Palace of Moncloa,Stadium,Spain,40.4436,-3.7371,1,69621.0,structure,,,True
54 University Avenue,Stadium,Myanmar,16.8258,96.1505,1,20656.0,structure,,,False
"7, Lok Kalyan Marg",Stadium,India,28.6,77.2,1,491681.0,structure,,,False
Curtis Culwell Center,Stadium,United_States,32.9596,-96.6419,1,20304.0,structure,,,False
PTIK Stadium,Stadium,Indonesia,-6.24488,106.807,0,14805.0,structure,,,False
Estadio 23 de Agosto,Stadium,Argentina,-24.1986,-65.2908,1,6834.0,structure,,,False
Estadio Ciudad de Lanús – Néstor Díaz Pérez,Stadium,Argentina,-34.7177,-58.3838,1,22342.0,structure,,,False
Estadio Gigante de Arroyito,Stadium,Argentina,-32.914,-60.6746,1,37190.0,structure,,,False
Estadio José María Minella,Stadium,Argentina,-38.0179,-57.5823,1,25048.0,structure,,,False
Estadio Libertadores de América,Stadium,Argentina,-34.6703,-58.371,1,71606.0,structure,,,False
Duitse Huis,Stadium,Netherlands,52.088,5.11849,1,9272.0,structure,,,False
Estadio Padre Ernesto Martearena,Stadium,Argentina,-24.8209,-65.4192,1,16319.0,structure,,,True
Estadio Mario Alberto Kempes,Stadium,Argentina,-31.369,-64.2462,1,76819.0,structure,,,False
Oulun Energia Areena,Stadium,Finland,65.0083,25.495,1,6802.0,structure,,,True
Falkirk Stadium,Stadium,Scotland,56.0054,-3.75264,1,57105.0,structure,,,False
Estadio San Juan del Bicentenario,Stadium,Argentina,-31.6119,-68.5275,1,16097.0,structure,,,False
Hyatt Regency Phoenix,Hotel,United_States,33.4499,-112.072,1,12552.0,structure,,,False
Hotel X Toronto,Hotel,Canada,43.6331,-79.4121,1,29023.0,structure,,,False
Hotel Roanoke,Hotel,United_States,37.2745,-79.9394,1,28802.0,structure,,,False
"Hotel Le Plaza, Brussels",Hotel,Belgium,50.8544,4.35639,1,5385.0,structure,,,False
Hostal dos Reis Católicos,Hotel,Spain,42.8814,-8.5458,1,16466.0,structure,,,False
Belmond Hotel Cipriani,Hotel,Italy,45.4261,12.3411,1,25239.0,structure,,,False
San Dimas Hotel,Hotel,United_States,34.1075,-117.806,1,6118.0,structure,,,False
Casa Vallejo,Hotel,Philippines,16.4095,120.601,1,6689.0,structure,,,False
Hilton Istanbul Bosphorus,Hotel,Turkey,41.0445,28.9891,1,18062.0,structure,,,False
Hilton Tel Aviv,Hotel,Israel,32.0892,34.7708,1,12489.0,structure,,,False
Hilton Manchester Deansgate,Hotel,United_Kingdom,53.4755,-2.25071,1,15412.0,structure,,,False
Hilton London Metropole,Hotel,United_Kingdom,51.5193,-0.16949,1,40444.0,structure,,,True
Hilton Kuala Lumpur,Hotel,Malaysia,3.13521,101.686,1,15393.0,structure,,,False
Hilton Helsinki Kalastajatorppa,Hotel,Finland,60.1925,24.8731,1,5084.0,structure,,,False
Victoria Falls Hotel,Hotel,Zimbabwe,-17.9307,25.8426,1,17716.0,structure,,,False
Outspan Hotel,Hotel,Kenya,-0.4209,36.9418,0,13605.0,structure,,,True
Fereshteh Pasargad Hotel,Hotel,Iran,35.7842,51.4298,0,9698.0,structure,,,False
Datai Langkawi,Hotel,Malaysia,6.42253,99.6704,0,18151.0,structure,,,True
Threadneedles Hotel,Hotel,United_Kingdom,51.5155,-0.0902778,0,5820.0,structure,,,False
Park Plaza Westminster Bridge,Hotel,United_Kingdom,51.5009,-0.1166,1,56334.0,structure,,,False
The Beverly Hills Hotel,Hotel,United_States,34.0814,-118.414,1,400207.0,structure,,,False
Four Seasons Hotel (Prague),Hotel,Czech_Republic,50.0876,14.4151,1,5760.0,structure,,,False
The Cavendish Hotel,Hotel,United_Kingdom,51.5078,-0.137778,1,14149.0,structure,,,False
The Greenbrier,Hotel,United_States,37.7854,-80.3083,1,599427.0,structure,,,False
Oxford and Cambridge Club,Hotel,England,51.5056,-0.1365,1,57300.0,structure,,,False
Raichak on Ganges,Hotel,India,22.205,88.13,0,10847.0,structure,,,True
Hilton Frankfurt Airport,Hotel,Germany,50.0535,8.57281,0,9241.0,structure,,,False
Rafayel on the Left Bank,Hotel,United_Kingdom,51.4704,-0.1779,1,5738.0,structure,,,False
Old Mill Toronto,Hotel,Canada,43.6508,-79.4933,1,9871.0,structure,,,True
Old Course Hotel,Hotel,United_Kingdom,56.3445,-2.81138,1,7592.0,structure,,,False
Milestone Hotel,Hotel,United_Kingdom,51.5021,-0.18679,1,6701.0,structure,,,False
"Imperial Hotel, London",Hotel,United_Kingdom,51.5218,-0.1241,1,16197.0,structure,,,False
Sutera Harbour,Hotel,Malaysia,5.96944,116.058,1,12288.0,structure,,,False
Lausanne Palace,Hotel,Switzerland,46.5194,6.6305,1,12043.0,structure,,,False
The Hotel Brussels,Hotel,Belgium,50.8372,4.3575,1,14737.0,structure,,,False
The Fullerton Hotel Singapore,Hotel,Singapore,1.28611,103.853,1,138340.0,structure,,,False
Anantara Siam Bangkok Hotel,Hotel,Thailand,13.741,100.54,1,12547.0,structure,,,False
Hilton Cardiff,Hotel,United_Kingdom,51.4828,-3.17889,1,8450.0,structure,,,True
Whitney Peak Hotel,Hotel,United_States,39.528,-119.814,1,14242.0,structure,,,True
Monte-Carlo Beach,Hotel,Monaco,43.7517,7.44385,1,6230.0,structure,,,False
Grand Hyatt Taipei,Hotel,Taiwan,25.0355,121.563,1,20689.0,structure,,,False
Gleneagles Hotel,Hotel,Scotland,56.2858,-3.7475,1,118570.0,structure,,,False
Galle Face Hotel,Hotel,Sri_Lanka,6.92,79.8462,1,32276.0,structure,,,True
Collapse of Hotel New World,Hotel,Singapore,1.31178,103.855,1,95601.0,structure,,,False
Glenapp Castle,Hotel,Scotland,55.0841,-4.98848,1,21542.0,structure,,,False
Conrad London St. James,Hotel,United_Kingdom,51.4995,-0.132933,0,7205.0,structure,,,False
Esplanade Zagreb Hotel,Hotel,Croatia,45.8053,15.9758,1,16299.0,structure,,,False
The Lensbury,Hotel,United_Kingdom,51.4278,-0.3186,1,15038.0,structure,,,True
Claridge's,Hotel,England,51.5125,-0.1476,1,143175.0,structure,,,False
The Pinnacle (Nairobi),Hotel,Kenya,-1.29667,36.8181,1,50338.0,structure,,,False
The Mark Hotel,Hotel,United_States,40.7752,-73.9634,1,33729.0,structure,,,False
Waldorf Astoria Dubai Palm Jumeirah,Hotel,United_Arab_Emirates,25.1346,55.1507,1,19041.0,structure,,,False
Waldorf Astoria Berlin,Hotel,Germany,52.5057,13.333,1,13303.0,structure,,,False
WAPDA House,Hotel,Pakistan,31.5591,74.3259,1,24260.0,structure,,,False
Treetops Hotel,Hotel,Kenya,-0.36,36.9006,1,141558.0,structure,,,False
Cathay Building,Hotel,Singapore,1.29931,103.848,1,29281.0,structure,,,False
Balmoral Hotel,Hotel,Scotland,55.9529,-3.18951,1,88167.0,structure,,,True
BD Bacatá,Hotel,Colombia,4.60475,-74.0703,1,41263.0,structure,,,False
"Stanley Hotel, Nairobi",Hotel,Kenya,-1.284,36.822,1,26456.0,structure,,,False
Zum Riesen,Hotel,Germany,49.7002,9.2562,1,8168.0,structure,,,True
Azimut Hotel Murmansk,Hotel,Russia,68.9712,33.0762,1,6588.0,structure,,,False
Skibo Castle,Hotel,Scotland,57.8732,-4.13222,1,151405.0,structure,,,False
"The Waldorf Hilton, London",Hotel,United_Kingdom,51.5126,-0.1189,1,34598.0,structure,,,False
The Scotsman Hotel,Hotel,Scotland,55.9511,-3.18806,1,15199.0,structure,,,True
Kyburg (castle),Castle,Switzerland,47.4584,8.74338,1,10171.0,structure,,,False
Laufen Castle (Switzerland),Castle,Switzerland,47.6766,8.61504,1,10922.0,structure,,,True
Laugharne Castle,Castle,Wales,51.7694,-4.46202,1,22716.0,structure,,,False
Tre Kronor (castle),Castle,Sweden,59.3267,18.0717,1,87847.0,structure,,,False
Vadstena Castle,Castle,Sweden,58.4458,14.8836,1,12157.0,structure,,,True
Gripsholm Castle,Castle,Sweden,59.2561,17.2192,1,52513.0,structure,,,False
Konopiště,Castle,Czech_Republic,49.7794,14.6567,1,48329.0,structure,,,False
Münzenberg Castle,Castle,Germany,50.4517,8.77583,1,7969.0,structure,,,False
Olavinlinna,Castle,Finland,61.8639,28.9011,1,42641.0,structure,,,False
Vaux-le-Vicomte,Castle,France,48.5648,2.714,1,277922.0,structure,,,False
Rapperswil Castle,Castle,Switzerland,47.2273,8.81551,1,14404.0,structure,,,False
Cathcart Castle,Castle,Scotland,55.813,-4.2563,1,11458.0,structure,,,False
Midford Castle,Castle,England,51.3506,-2.34639,1,51145.0,structure,,,False
Mespelbrunn Castle,Castle,Germany,49.9056,9.30722,1,22955.0,structure,,,False
Kyrenia Castle,Castle,De_facto,35.3414,33.3222,1,37020.0,structure,,,True
Larnaca Castle,Castle,Cyprus,34.9103,33.6377,1,13847.0,structure,,,False
King's House on Schachen,Castle,Germany,47.4197,11.1126,1,15048.0,structure,,,False
Ujazdów Castle,Castle,Poland,52.2195,21.0311,1,17872.0,structure,,,False
Uppsala Castle,Castle,Sweden,59.8533,17.6353,1,29564.0,structure,,,False
Dough Castle,Castle,Republic_of_Ireland,52.9511,-9.35056,1,6089.0,structure,,,False
Riga Castle,Castle,Latvia,56.951,24.1006,1,31542.0,structure,,,False
Château d'Étampes,Castle,France,48.4372,2.15833,1,9196.0,structure,,,False
Château de Châteaudun,Castle,France,48.0706,1.32361,1,10119.0,structure,,,False
Château de Keriolet,Castle,France,47.8865,-3.9081,1,18215.0,structure,,,False
Château Burrus,Castle,France,48.2629,7.224,1,5583.0,structure,,,True
Château de Marchais,Castle,France,49.5866,3.8135,1,16154.0,structure,,,False
Peleș Castle,Castle,Romania,45.3598,25.5427,1,370090.0,structure,,,False
Kildrummy Castle,Castle,Scotland,57.235,-2.905,1,61204.0,structure,,,False
Parke's Castle,Castle,Republic_of_Ireland,54.2648,-8.33443,1,14559.0,structure,,,True
Banff Castle,Castle,Scotland,57.6666,-2.5224,1,8790.0,structure,,,True
Altenburg (Bamberg),Castle,Germany,49.881,10.869,1,12364.0,structure,,,True
Dunham Castle,Castle,England,53.3827,-2.39957,1,9079.0,structure,,,False
Drum Castle,Castle,Scotland,57.095,-2.33794,1,42856.0,structure,,,False
Dromoland Castle,Castle,Republic_of_Ireland,52.7833,-8.90597,1,102386.0,structure,,,True
Czocha Castle,Castle,Poland,51.0306,15.3036,1,31708.0,structure,,,False
Callenberg Castle,Castle,Germany,50.277,10.922,1,42624.0,structure,,,False
Canterbury Castle,Castle,England,51.2757,1.07462,1,37565.0,structure,,,False
Castello Estense,Castle,Italy,44.8375,11.6194,1,41585.0,structure,,,False
Riegersburg Castle,Castle,Austria,47.0047,15.9325,1,25390.0,structure,,,False
Bedlay Castle,Castle,Scotland,55.9053,-4.09381,1,7815.0,structure,,,False
Qasr al-Hayr al-Sharqi,Castle,Syria,35.0739,39.0711,1,17139.0,structure,,,True
Rosenborg Castle,Castle,Denmark,55.6856,12.5778,1,130854.0,structure,,,True
Schloss Porcia,Castle,Austria,46.7978,13.4956,1,5081.0,structure,,,False
"Schloss Rosenau, Coburg",Castle,Germany,50.2981,11.0225,1,192686.0,structure,,,False
Berwartstein Castle,Castle,Germany,49.1085,7.8627,1,12237.0,structure,,,False
Bled Castle,Castle,Slovenia,46.3697,14.1006,1,54978.0,structure,,,True
Bolsover Castle,Castle,United_Kingdom,53.2314,-1.29694,1,120292.0,structure,,,False
Qal'eh Dokhtar,Castle,Iran,28.9208,52.53,1,10530.0,structure,,,False
Tenczyn Castle,Castle,Poland,50.1022,19.5818,1,5587.0,structure,,,True
Trifels Castle,Castle,Germany,49.1961,7.97889,1,30253.0,structure,,,False
Vufflens Castle,Castle,Switzerland,46.5248,6.47629,1,6420.0,structure,,,False
Wachsenburg Castle,Castle,Germany,50.8583,10.8764,1,5524.0,structure,,,True
Waldburg Castle,Castle,Germany,47.7589,9.71194,1,5095.0,structure,,,True
Aalholm,Castle,Denmark,54.6644,11.7236,1,5214.0,structure,,,True
Aboyne Castle,Castle,Scotland,57.0846,-2.7833,1,24365.0,structure,,,False
Alden Biesen Castle,Castle,Belgium,50.8417,5.5206,1,8406.0,structure,,,False
Będzin Castle,Castle,Poland,50.3272,19.1291,1,11723.0,structure,,,False
Ardfinnan Castle,Castle,Republic_of_Ireland,52.31,-7.88,1,9528.0,structure,,,False
Chillon Castle,Castle,Switzerland,46.4142,6.92755,1,188762.0,structure,,,True
Chojnik Castle,Castle,Poland,50.8336,15.6436,1,9595.0,structure,,,False
Karlova Koruna Chateau,Castle,Czech_Republic,50.1589,15.4511,1,6861.0,structure,,,False
Baranów Sandomierski Castle,Castle,Poland,50.5019,21.5333,1,6832.0,structure,,,False
Baltersan Castle,Castle,Scotland,55.3427,-4.70982,1,9563.0,structure,,,False
Château d'Écouen,Castle,France,49.0175,2.37833,1,27253.0,structure,,,False
Cloughoughter Castle,Castle,Republic_of_Ireland,54.0187,-7.4548,1,18436.0,structure,,,False
Colditz Castle,Castle,Germany,51.131,12.8074,1,373472.0,structure,,,False
Clos Lucé,Castle,France,47.4102,0.991525,1,102281.0,structure,,,False
Zilkale,Castle,Turkey,40.959,40.9622,1,8986.0,structure,,,False
Eltz Castle,Castle,Germany,50.2051,7.3366,1,643588.0,structure,,,False
Stolzenfels Castle,Castle,Germany,50.303,7.592,1,43989.0,structure,,,False
Lublin Castle,Castle,Poland,51.2506,22.5722,1,22140.0,structure,,,False
Český Šternberk Castle,Castle,Czech_Republic,49.815,14.9267,1,10312.0,structure,,,False
Liverpool Castle,Castle,England,53.4049,-2.98889,1,33925.0,structure,,,False
Copenhagen Castle,Castle,Denmark,55.6772,12.58,1,25063.0,structure,,,False
Gerdkuh,Castle,Iran,36.1619,54.1569,1,9008.0,structure,,,False
Jungfraujoch railway station,RailwayStation,Switzerland,46.5475,7.98222,1,72716.0,structure,,,False
Interlaken West railway station,RailwayStation,Switzerland,46.6822,7.85139,1,7008.0,structure,,,False
Gornergrat railway station,RailwayStation,Switzerland,45.9833,7.78222,1,10401.0,structure,,,False
Eismeer railway station,RailwayStation,Switzerland,46.5722,8.01028,1,15758.0,structure,,,False
Eigerwand railway station,RailwayStation,Switzerland,46.5811,8.00361,1,36068.0,structure,,,False
Eigergletscher railway station,RailwayStation,Switzerland,46.5747,7.97028,1,12854.0,structure,,,False
Morosco Theatre,Theatre,United_States,40.758,-73.9857,1,23361.0,structure,,,True
Gaiety Theatre (New York City),Theatre,United_States,40.7585,-73.9854,0,5564.0,structure,,,False
"His Majesty's Theatre, Aberdeen",Theatre,Scotland,57.148,-2.1049,1,13988.0,structure,,,True
Tanghalang Pambansa,Theatre,Philippines,14.5567,120.981,1,26090.0,structure,,,True
Performing Garage,Theatre,United_States,40.7223,-74.003,1,8116.0,structure,,,False
Arts Theatre,Theatre,United_Kingdom,51.5119,-0.1275,1,29976.0,structure,,,True
Astor Place Theatre,Theatre,United_States,40.7293,-73.9922,1,24530.0,structure,,,False
Astor Theatre (New York City),Theatre,United_States,40.758,-73.9856,1,10539.0,structure,,,False
Charles Playhouse,Theatre,United_States,42.35,-71.0661,1,12561.0,structure,,,False
Jersey Opera House,Theatre,United_Kingdom,49.1866,-2.11286,1,5310.0,structure,,,False
John Golden Theatre,Theatre,United_States,40.7588,-73.9879,1,63073.0,structure,,,False
Shubert Theatre (New Haven),Theatre,United_States,41.3065,-72.9291,0,11370.0,structure,,,True
Long Wharf Theatre,Theatre,United_States,41.2941,-72.9227,0,12856.0,structure,,,False
Eugene O'Neill Theater Center,Theatre,United_States,41.3103,-72.1097,1,67718.0,structure,,,False
Ford's Theatre,Theatre,United_States,38.8967,-77.0257,1,415106.0,structure,,,True
North Shore Music Theatre,Theatre,United_States,42.5758,-70.8697,1,41359.0,structure,,,False
Paper Mill Playhouse,Theatre,United_States,40.7278,-74.3092,1,80102.0,structure,,,False
Paradise Theater (Bronx),Theatre,United_States,40.8603,-73.8984,1,23699.0,structure,,,False
Pasadena Playhouse,Theatre,United_States,34.1451,-118.137,1,130183.0,structure,,,False
HERE Arts Center,Theatre,United_States,40.7251,-74.0048,1,8005.0,structure,,,False
Habima Theatre,Theatre,Israel,32.0728,34.779,1,19650.0,structure,,,False
Harrison Opera House,Theatre,United_States,36.8583,-76.29,1,8190.0,structure,,,False
Helsinki City Theatre,Theatre,Finland,60.1819,24.9425,1,5239.0,structure,,,False
Manila Grand Opera House,Theatre,Philippines,14.6055,120.982,1,28439.0,structure,,,False
Kabuki-za,Theatre,Japan,35.6695,139.768,1,40016.0,structure,,,False
La Comedia Dinner Theatre,Theatre,United_States,39.5622,-84.2592,1,5236.0,structure,,,True
La Monnaie,Theatre,Belgium,50.8497,4.35389,1,45105.0,structure,,,False
New York Theatre Workshop,Theatre,United_States,40.7267,-73.99,1,42317.0,structure,,,True
"Opera House, Wellington",Theatre,New_Zealand,-41.2915,174.778,1,11645.0,structure,,,False
"Orpheum Theatre (Phoenix, Arizona)",Theatre,United_States,33.4491,-112.076,1,18960.0,structure,,,False
Second Stage Theater,Theatre,United_States,40.7582,-73.9896,1,29731.0,structure,,,False
Yale Repertory Theatre,Theatre,United_States,41.3083,-72.9315,1,21411.0,structure,,,True
New York City Center,Theatre,United_States,40.7639,-73.9794,1,72887.0,structure,,,False
South Coast Repertory,Theatre,United_States,33.6921,-117.882,1,15501.0,structure,,,False
Victoria Theatre (Hammerstein's),Theatre,United_States,40.7561,-73.987,1,7885.0,structure,,,False
Guthrie Theater,Theatre,United_States,44.9781,-93.2553,1,95802.0,structure,,,False
In the Heart of the Beast Puppet and Mask Theatre,Theatre,United_States,44.9486,-93.2536,1,10203.0,structure,,,False
Playwrights Horizons,Theatre,United_States,40.7586,-73.9936,1,27063.0,structure,,,True
Teatro de la Maestranza,Theatre,Spain,37.3838,-5.9971,1,8251.0,structure,,,False
"Royal Opera House, Valletta",Theatre,Malta_Colony,35.8967,14.5103,1,44968.0,structure,,,False
Ethiopian National Theatre,Theatre,Ethiopia,9.0161,38.7519,1,8379.0,structure,,,False
"National Theatre, Singapore",Theatre,Singapore,1.29296,103.844,1,14768.0,structure,,,False
Lace Market Theatre,Theatre,United_Kingdom,52.9516,-1.1449,1,13457.0,structure,,,False
Sydney Lyric,Theatre,Australia,-33.8686,151.196,1,19146.0,structure,,,False
Symphony Space,Theatre,United_States,40.7946,-73.9722,1,16671.0,structure,,,False
Süreyya Opera House,Theatre,Turkey,40.988,29.0286,1,7792.0,structure,,,False
Edison Theatre,Theatre,United_States,40.7597,-73.9862,1,7082.0,structure,,,False
"Theatre Royal, Nottingham",Theatre,England,52.9556,-1.1517,1,26402.0,structure,,,False
Pittsburgh Playhouse,Theatre,United_States,40.4396,-79.9999,1,14267.0,structure,,,False
Playhouse Theatre,Theatre,United_Kingdom,51.5069,-0.123611,1,71153.0,structure,,,False
Civic Opera House (Chicago),Theatre,United_States,41.8825,-87.6375,1,52317.0,structure,,,False
Imperial Theatre,Theatre,United_States,40.7592,-73.9871,1,85131.0,structure,,,False
Milwaukee Repertory Theater,Theatre,United_States,43.0409,-87.9113,1,10261.0,structure,,,False
Minami-za,Theatre,Japan,35.0035,135.772,1,9688.0,structure,,,False
Comedy Theatre (New York City),Theatre,United_States,40.7544,-73.9853,1,5508.0,structure,,,False
McCarter Theatre,Theatre,United_States,40.3443,-74.6607,1,24175.0,structure,,,True
Menier Chocolate Factory,Theatre,England,51.5051,-0.0972,1,67709.0,structure,,,True
"Saenger Theatre (Mobile, Alabama)",Theatre,United_States,30.6906,-88.044,1,9741.0,structure,,,False
Friedrichstadt-Palast,Theatre,Germany,52.5239,13.3888,1,50005.0,structure,,,False
Geffen Playhouse,Theatre,United_States,34.0636,-118.445,1,56485.0,structure,,,False
Goodspeed Musicals,Theatre,United_States,41.4518,-72.4625,1,22898.0,structure,,,False
"Grand Theatre, Leeds",Theatre,England,53.8,-1.5408,1,16903.0,structure,,,False
"Grand Theatre, Poznań",Theatre,Poland,52.41,16.9175,1,8207.0,structure,,,False
Mixed Blood Theatre Company,Theatre,United_States,44.9709,-93.2494,1,5561.0,structure,,,False
The Other Palace,Theatre,United_Kingdom,51.4986,-0.14091,1,34217.0,structure,,,False
The Water Rats,Theatre,United_Kingdom,51.529,-0.11965,1,19545.0,structure,,,False
Fulton Theatre,Theatre,United_States,40.7587,-73.9856,1,21649.0,structure,,,True
Rialto Theatre (New York City),Theatre,United_States,40.7563,-73.9871,1,10748.0,structure,,,False
Project Arts Centre,Theatre,Republic_of_Ireland,53.345,-6.26624,1,7988.0,structure,,,False
Royal Danish Playhouse,Theatre,Denmark,55.6801,12.5946,1,19298.0,structure,,,False
Scarborough Open Air Theatre,Theatre,England,54.3,-0.41,1,29566.0,structure,,,False
Schaubühne,Theatre,Germany,52.4986,13.3022,1,20732.0,structure,,,False
Morris A. Mechanic Theatre,Theatre,United_States,39.289,-76.6158,1,17921.0,structure,,,True
Barrow Street Theatre,Theatre,United_States,40.7324,-74.0032,1,11407.0,structure,,,False
Berkeley Repertory Theatre,Theatre,United_States,37.8711,-122.269,1,23602.0,structure,,,False
Birmingham Repertory Theatre,Theatre,England,52.4794,-1.90941,1,36409.0,structure,,,False
Booth Theatre,Theatre,United_States,40.7584,-73.987,1,83119.0,structure,,,False
Boston Playwrights' Theatre,Theatre,United_States,42.3517,-71.1187,1,6416.0,structure,,,False
Bridge Theatre,Theatre,United_Kingdom,51.504,-0.0774,1,56182.0,structure,,,True
Dee and Charles Wyly Theatre,Theatre,United_States,32.7899,-96.7964,1,12206.0,structure,,,True
Biograph Theater,Theatre,United_States,41.9263,-87.6499,1,114353.0,structure,,,False
Pantomimeteatret,Theatre,Denmark,55.6745,12.5665,1,9524.0,structure,,,False
Tuacahn,Theatre,United_States,37.1913,-113.659,1,17867.0,structure,,,False
War Memorial Opera House,Theatre,United_States,37.7786,-122.421,1,53932.0,structure,,,False
Watermill Theatre,Theatre,United_Kingdom,51.4213,-1.35247,1,11044.0,structure,,,True
Théâtre de l'Œuvre,Theatre,France,48.881,2.3285,1,10845.0,structure,,,True
Garrick Theatre (New York City),Theatre,United_States,40.7504,-73.9867,1,6968.0,structure,,,False
Teatro Español (Madrid),Theatre,Spain,40.4149,-3.6999,1,8418.0,structure,,,False
Teatro de la Ciudad,Theatre,Mexico,19.4366,-99.1373,1,7002.0,structure,,,False
Academy of Music (Philadelphia),Theatre,United_States,39.948,-75.1651,1,43347.0,structure,,,False
Actors Theatre of Louisville,Theatre,United_States,38.2564,-85.7555,1,20727.0,structure,,,False
American Repertory Theater,Theatre,United_States,42.375,-71.1227,1,51185.0,structure,,,False
Stage 42,Theatre,United_States,40.7587,-73.9938,1,10723.0,structure,,,False
La MaMa Experimental Theatre Club,Theatre,United_States,40.7266,-73.9901,1,35196.0,structure,,,False
Millennium Forum,Theatre,Northern_Ireland,54.997,-7.32,1,6857.0,structure,,,False
Apollo Victoria Theatre,Theatre,United_Kingdom,51.4956,-0.1427,1,90695.0,structure,,,False
"Lyric Theatre (New York City, 1998)",Theatre,United_States,40.7569,-73.9878,1,16745.0,structure,,,False
Slovak National Theatre,Theatre,Slovakia,48.1425,17.1105,1,11819.0,structure,,,False
Smock Alley Theatre,Theatre,Republic_of_Ireland,53.3451,-6.26955,1,14325.0,structure,,,False
Ziegfeld Theatre (1927),Theatre,United_States,40.7626,-73.9787,1,32628.0,structure,,,False
Burgtheater,Theatre,Austria,48.2103,16.3614,1,101109.0,structure,,,False
Playhouse Theatre (New York City),Theatre,United_States,40.7594,-73.9825,0,6434.0,structure,,,True
National Theatre of Iceland,Theatre,Iceland,64.147,-21.9299,0,8680.0,structure,,,False
New Century Theatre,Theatre,United_States,40.7665,-73.9795,0,9806.0,structure,,,False
Mitchell Highway,Road,Australia,-26.6541,146.176,1,14200.0,structure,,,False
Monash Freeway,Road,Australia,-37.8447,145.04,1,43099.0,structure,,,False
Mornington Peninsula Freeway,Road,Australia,-37.9603,145.119,1,16836.0,structure,,,False
"Murray Street, Perth",Road,Australia,-31.9523,115.858,1,8914.0,structure,,,False
Mitchell Freeway,Road,Australia,-31.9615,115.849,1,24021.0,structure,,,False
"Ann Street, Brisbane",Road,Australia,-27.4628,153.03,1,7908.0,structure,,,False
Anne Beadell Highway,Road,Australia,-28.6212,122.418,1,21486.0,structure,,,False
Glenloch Interchange,Road,Australia,-35.2847,149.084,1,5687.0,structure,,,False
Gore Hill Freeway,Road,Australia,-33.8124,151.176,1,7672.0,structure,,,False
South Gippsland Freeway,Road,Australia,-37.9909,145.255,0,5237.0,structure,,,True
Great Central Road,Road,Australia,-28.626,122.406,1,64234.0,structure,,,False
Great Ocean Road,Road,Australia,-38.7338,143.687,1,428101.0,structure,,,False
Princes Motorway,Road,Australia,-34.4014,150.872,1,17108.0,structure,,,True
"Hardware Lane, Melbourne",Road,Australia,-37.8142,144.962,1,12770.0,structure,,,False
Augusta Highway,Road,Australia,-32.4803,137.753,1,6822.0,structure,,,True
"Brunswick Street, Melbourne",Road,Australia,-37.7983,144.978,1,13431.0,structure,,,False
Castlereagh Street,Road,Australia,-33.8803,151.208,1,10693.0,structure,,,False
Cape Leveque Road,Road,Australia,-17.4734,122.485,1,6870.0,structure,,,False
Sturt Highway,Road,Australia,-34.9157,138.623,1,29187.0,structure,,,False
Stuart Highway,Road,Australia,-12.4546,130.839,1,152620.0,structure,,,True
"Liverpool Street, Sydney",Road,Australia,-33.8759,151.204,1,5431.0,structure,,,False
"Macquarie Street, Sydney",Road,Australia,-33.8588,151.214,1,20568.0,structure,,,False
Main North Road,Road,Australia,-32.6275,137.916,1,7589.0,structure,,,False
Majura Parkway,Road,Australia,-35.3017,149.174,1,5445.0,structure,,,True
Strzelecki Track,Road,Australia,-27.7474,140.736,1,30653.0,structure,,,False
"George Street, Brisbane",Road,Australia,-27.4756,153.028,1,9573.0,structure,,,False
"George Street, Sydney",Road,Australia,-33.8563,151.208,1,51891.0,structure,,,True
Hoddle Highway,Road,Australia,-37.7856,144.995,1,5426.0,structure,,,False
Hunter Expressway,Road,Australia,-32.8909,151.6,1,12290.0,structure,,,False
Pennant Hills Road,Road,Australia,-33.7183,151.108,1,10565.0,structure,,,False
"Bridge Road, Melbourne",Road,Australia,-37.8176,144.99,1,5162.0,structure,,,True
"Queen Street, Melbourne",Road,Australia,-37.8126,144.96,1,8890.0,structure,,,False
Sandover Highway,Road,Australia,-22.9667,133.833,1,7258.0,structure,,,False
Savannah Way,Road,Australia,-14.4667,132.267,1,18837.0,structure,,,False
Barrier Highway,Road,Australia,-34.2317,138.739,1,17866.0,structure,,,True
Barry Way,Road,Australia,-36.4833,148.567,1,11217.0,structure,,,False
"Bass Highway, Tasmania",Road,Australia,-41.0464,145.895,1,5201.0,structure,,,False
Birdsville Track,Road,Australia,-28.0187,138.663,1,40713.0,structure,,,False
Victoria Highway,Road,Australia,-15.8685,128.372,1,7285.0,structure,,,False
Meccano Set,Road,Australia,-33.8897,150.973,0,7618.0,structure,,,True
CityLink,Road,Australia,-37.7353,144.904,1,136031.0,structure,,,True
"Elizabeth Street, Melbourne",Road,Australia,-37.8096,144.961,1,17155.0,structure,,,False
"Elizabeth Street, Sydney",Road,Australia,-33.8663,151.211,1,10419.0,structure,,,False
Geelong Ring Road,Road,Australia,-38.0566,144.389,1,8236.0,structure,,,False
General Holmes Drive,Road,Australia,-33.9338,151.192,1,8598.0,structure,,,True
"Russell Street, Melbourne",Road,Australia,-37.8119,144.968,1,9299.0,structure,,,False
"Victoria Street, Melbourne",Road,Australia,-37.8044,144.942,1,12055.0,structure,,,False
"Collins Street, Melbourne",Road,Australia,-37.8168,144.962,1,59631.0,structure,,,False
"Crown Street, Sydney",Road,Australia,-33.871,151.217,1,5343.0,structure,,,True
St Kilda Road,Road,Australia,-37.8206,144.969,1,5161.0,structure,,,False
Centenary Motorway,Road,Australia,-27.6485,152.933,1,7005.0,structure,,,False
Dixie Highway,Road,United_States,29.5803,-81.3431,1,163861.0,structure,,,False
Sydney Gateway,Road,Australia,-33.9231,151.17,0,12542.0,structure,,,False
"Market Street, Sydney",Road,Australia,-33.8709,151.204,1,7577.0,structure,,,False
Swanston Street,Road,Australia,-37.8059,144.963,1,5218.0,structure,,,False
"Phillip Street, Sydney",Road,Australia,-33.8617,151.212,1,5604.0,structure,,,False
Pitt Street,Road,Australia,-33.8614,151.209,1,21515.0,structure,,,False
Port River Expressway,Road,Australia,-34.8379,138.503,1,6193.0,structure,,,False
"Sussex Street, Sydney",Road,Australia,-33.8641,151.203,1,8265.0,structure,,,False
Jeffrey Street,Road,Australia,-33.8473,151.214,1,6657.0,structure,,,False
"The Bridle Track, New South Wales",Road,Australia,-33.0333,149.417,1,7886.0,structure,,,False
Kidman Way,Road,Australia,-30.0941,145.937,1,11319.0,structure,,,False
"King Street, Melbourne",Road,Australia,-37.8122,144.954,1,17461.0,structure,,,False
"King Street, Sydney",Road,Australia,-33.8693,151.212,1,8801.0,structure,,,False
"King William Street, Adelaide",Road,Australia,-34.9094,138.597,1,14464.0,structure,,,False
Lachlan Valley Way,Road,Australia,-33.8668,144.888,1,5251.0,structure,,,False
Bloomfield Track,Road,Australia,-15.8577,145.327,1,11174.0,structure,,,True
Summerland Way,Road,Australia,-28.3369,152.701,1,7659.0,structure,,,False
RM Williams Way,Road,Australia,-33.72,138.58,1,5089.0,structure,,,True
Oodnadatta Track,Road,Australia,-27.3079,133.625,1,47135.0,structure,,,False
Olympic Highway,Road,Australia,-34.87,147.544,1,11862.0,structure,,,False
Old Hume Highway,Road,Australia,-33.9428,150.871,1,14959.0,structure,,,False
Newcastle Inner City Bypass,Road,Australia,-32.9946,151.688,0,6500.0,structure,,,False
"Inner City Bypass, Brisbane",Road,Australia,-27.4531,153.024,1,12223.0,structure,,,False
Wombeyan Caves Road,Road,Australia,-34.35,150.217,1,9965.0,structure,,,False
South Eastern Freeway,Road,Australia,-34.9634,138.644,1,19403.0,structure,,,False
Southern Cross Drive,Road,Australia,-33.9099,151.213,1,7017.0,structure,,,False
Southern Expressway (South Australia),Road,Australia,-35.0055,138.576,1,13812.0,structure,,,False
"Spencer Street, Melbourne",Road,Australia,-37.8131,144.951,1,12511.0,structure,,,False
"Spring Street, Melbourne",Road,Australia,-37.8116,144.973,1,12353.0,structure,,,False
"Mary Street, Brisbane",Road,Australia,-27.4712,153.028,1,5333.0,structure,,,False
"York Street, Sydney",Road,Australia,-33.8634,151.205,1,8423.0,structure,,,False
Burwood Highway,Road,Australia,-37.8447,145.04,1,5375.0,structure,,,False
ACDC Lane,Road,Australia,-37.8155,144.971,1,34204.0,structure,,,False
"Adelaide Street, Brisbane",Road,Australia,-27.4668,153.027,1,9247.0,structure,,,False
"Airport Link, Brisbane",Road,Australia,-27.4102,153.055,1,26424.0,structure,,,False
Gary Junction Road,Road,Australia,-22.8725,126.6,1,7761.0,structure,,,False
Cumberland Highway,Road,Australia,-33.7199,151.106,1,10054.0,structure,,,False
EastLink (Melbourne),Road,Australia,-37.8039,145.178,1,44847.0,structure,,,False
Alpine Way,Road,Australia,-36.4106,148.595,1,11720.0,structure,,,False
"William Street, Sydney",Road,Australia,-33.875,151.22,1,9168.0,structure,,,False
"Centre Place, Melbourne",Road,Australia,-37.8165,144.965,1,12441.0,structure,,,False
Thunderbolts Way,Road,Australia,-29.7798,151.119,1,19341.0,structure,,,False
Tullamarine Freeway,Road,Australia,-37.673,144.857,1,21248.0,structure,,,False
Waterfall Way,Road,Australia,-30.4622,153.0,1,22799.0,structure,,,True
West Gate Freeway,Road,Australia,-37.8276,144.817,1,18082.0,structure,,,False
"William Street, Melbourne",Road,Australia,-37.813,144.957,1,8891.0,structure,,,True
Eastern Distributor,Road,Australia,-33.8688,151.218,1,27379.0,structure,,,False
"Exhibition Street, Melbourne",Road,Australia,-37.813,144.971,1,9995.0,structure,,,True
"Oxford Street, Sydney",Road,Australia,-33.8709,151.204,1,34766.0,structure,,,False
Pacific Motorway (Sydney–Newcastle),Road,Australia,-33.7216,151.105,1,58534.0,structure,,,False
Parramatta Road,Road,Australia,-33.8681,151.099,1,22497.0,structure,,,True
Gunbarrel Highway,Road,Australia,-25.7963,122.953,1,42936.0,structure,,,True
Eastern Freeway (Melbourne),Road,Australia,-37.7944,144.99,1,28572.0,structure,,,True
Quaid Road,Road,Australia,-16.6625,145.559,0,7028.0,structure,,,False
Outback Highway,Road,Australia,-28.6257,122.401,1,14825.0,structure,,,False
North–South Motorway,Road,Australia,-34.7051,138.573,1,11390.0,structure,,,True
Northern Expressway,Road,Australia,-34.5938,138.73,1,10647.0,structure,,,False
"Flinders Lane, Melbourne",Road,Australia,-37.817,144.965,1,10961.0,structure,,,False
"Flinders Street, Melbourne",Road,Australia,-37.8186,144.964,1,28887.0,structure,,,False
"Fitzroy Street, Melbourne",Road,Australia,-37.8627,144.973,1,11368.0,structure,,,False
"North Terrace, Adelaide",Road,Australia,-34.9221,138.587,1,20097.0,structure,,,True
North West Coastal Highway,Road,Australia,-28.042,114.674,1,18008.0,structure,,,True
Stephen Joseph Theatre,Venue,England,54.2806,-0.405833,1,16664.0,structure,,,False
"State Theatre (Cleveland, Ohio)",Venue,United_States,41.5008,-81.6808,1,11667.0,structure,,,False
Starwood (nightclub),Venue,United_States,34.091,-118.367,1,46407.0,structure,,,False
State Theatre (Melbourne),Venue,Australia,-37.8203,144.968,1,10029.0,structure,,,False
Sidney Harman Hall,Venue,United_States,38.897,-77.0205,1,6380.0,structure,,,False
Lowell Memorial Auditorium,Venue,United_States,42.6451,-71.3042,1,11904.0,structure,,,False
"Lyric Theatre (Kansas City, Missouri)",Venue,United_States,39.1013,-94.5865,1,5037.0,structure,,,False
Sterling Cineplex,Venue,India,18.938,72.833,1,11147.0,structure,,,False
Mahalia Jackson Theater of the Performing Arts,Venue,United_States,29.9631,-90.0693,1,13513.0,structure,,,False
Majestic Theatre (San Antonio),Venue,United_States,29.4261,-98.49,1,32273.0,structure,,,True
"State Theatre (State College, Pennsylvania)",Venue,United_States,40.7936,-77.8621,0,6302.0,structure,,,False
Avalon Regal Theater,Venue,United_States,41.7514,-87.5836,1,25506.0,structure,,,False
Music Hall Aberdeen,Venue,Scotland,57.145,-2.105,1,8588.0,structure,,,False
Balboa Theatre,Venue,United_States,32.7139,-117.161,1,16293.0,structure,,,False
Barbarella's,Venue,United_Kingdom,52.4767,-1.91333,1,14352.0,structure,,,False
Louise M. Davies Symphony Hall,Venue,United_States,37.778,-122.421,1,36768.0,structure,,,False
Mayo Performing Arts Center,Venue,United_States,40.7941,-74.4781,1,9207.0,structure,,,True
Straz Center for the Performing Arts,Venue,United_States,27.9515,-82.4639,1,30822.0,structure,,,True
Cluj-Napoca National Theatre,Venue,Romania,46.7704,23.5971,1,6243.0,structure,,,False
Pantages Theatre (Minneapolis),Venue,United_States,44.9781,-93.2756,1,14173.0,structure,,,False
"Paramount Theater (Charlottesville, Virginia)",Venue,United_States,38.0309,-78.4799,1,5745.0,structure,,,False
Pavilion Theatre (Glasgow),Venue,Scotland,55.8651,-4.2557,1,16026.0,structure,,,False
Steppenwolf Theatre Company,Venue,United_States,41.9125,-87.6486,1,184795.0,structure,,,False
Long Center for the Performing Arts,Venue,United_States,30.2602,-97.7512,1,12629.0,structure,,,False
Mount Baker Theatre,Venue,United_States,48.7522,-122.477,1,9937.0,structure,,,True
"Municipal Theatre, Ho Chi Minh City",Venue,Vietnam,10.7767,106.703,1,39185.0,structure,,,False
Murphy Theatre,Venue,United_States,39.4451,-83.8294,1,8778.0,structure,,,False
Music Hall Center for the Performing Arts,Venue,United_States,42.3372,-83.0461,1,16022.0,structure,,,False
Musikhuset Aarhus,Venue,Denmark,56.1528,10.1997,1,9732.0,structure,,,False
Cork Opera House,Venue,Republic_of_Ireland,51.9003,-8.4726,1,16530.0,structure,,,False
"The Rex, Berkhamsted",Venue,United_Kingdom,51.7588,-0.560389,1,12036.0,structure,,,True
Morris Performing Arts Center,Venue,United_States,41.6783,-86.2506,1,7039.0,structure,,,True
Bristol Hippodrome,Venue,"England,_United_Kingdom",51.4531,-2.5981,1,92709.0,structure,,,True
Golden Gate Theatre,Venue,United_States,37.7822,-122.411,1,26543.0,structure,,,False
"Grand Opera House, Belfast",Venue,Northern_Ireland,54.595,-5.935,1,24258.0,structure,,,False
"Grand Theatre, Warsaw",Venue,Poland,52.243,21.011,1,31185.0,structure,,,True
Mission Theater and Pub,Venue,United_States,45.5262,-122.688,1,5222.0,structure,,,False
Moody Performance Hall,Venue,United_States,32.7907,-96.7958,1,5519.0,structure,,,False
The Scotch of St. James,Venue,United_Kingdom,51.5078,-0.1371,0,26058.0,structure,,,False
Loew's Jersey Theatre,Venue,United_States,40.7322,-74.0645,1,19863.0,structure,,,False
Apollo Theater Chicago,Venue,United_States,41.9278,-87.6521,1,18099.0,structure,,,False
Leeds Town Hall,Venue,England,53.8003,-1.5497,1,49716.0,structure,,,False
Leicester Haymarket Theatre,Venue,England,52.6375,-1.132,1,17551.0,structure,,,False
Lenkom Theatre,Venue,Russia,55.7678,37.6067,1,5593.0,structure,,,True
Lensic Theater,Venue,United_States,35.6879,-105.941,1,6236.0,structure,,,False
The Steve Allen Theater,Venue,United_States,34.102,-118.294,0,5123.0,structure,,,False
Rodney Bingenheimer's English Disco,Venue,United_States,34.0981,-118.357,0,41095.0,structure,,,True
Andrew W. Mellon Auditorium,Venue,United_States,38.8926,-77.0297,1,65377.0,structure,,,False
Theatre Building Chicago,Venue,United_States,41.9395,-87.66,1,11325.0,structure,,,False
"Theatre Royal, Bath",Venue,England,51.3821,-2.3629,1,24594.0,structure,,,False
"Theatre Royal, Bury St Edmunds",Venue,England,52.2406,0.7172,1,7238.0,structure,,,False
"Theatre Royal, Drury Lane",Venue,England,51.5131,-0.120278,1,224575.0,structure,,,False
"Theatre Royal, Hobart",Venue,Australia,-42.8796,147.331,1,7723.0,structure,,,False
Thessaloniki Concert Hall,Venue,Greece,40.5983,22.9483,1,22727.0,structure,,,False
The Thekla,Venue,Great_Britain,51.4492,-2.59518,1,35336.0,structure,,,False
Bristol Old Vic,Venue,United_Kingdom,51.4521,-2.5942,1,74457.0,structure,,,False
Civic Center of Greater Des Moines,Venue,United_States,41.5874,-93.6204,1,23353.0,structure,,,False
Plaza de toros de La Malagueta,Venue,Spain,36.7203,-4.41081,1,19579.0,structure,,,False
Plaza de Toros México,Venue,Mexico,19.3834,-99.1782,1,36218.0,structure,,,False
Plaza Theatre (El Paso),Venue,United_States,31.7586,-106.486,1,14984.0,structure,,,True
Plaza Theatre (Bangalore),Venue,India,12.9751,77.606,1,7448.0,structure,,,False
Mark Taper Forum,Venue,United_States,34.0575,-118.248,1,45220.0,structure,,,False
Marigny Opera House,Venue,United_States,29.965,-90.0491,1,8561.0,structure,,,False
Eblana Theatre,Venue,Republic_of_Ireland,53.3497,-6.25222,0,8317.0,structure,,,False
BATS Theatre,Venue,New_Zealand,-41.2936,174.784,1,6990.0,structure,,,True
Port Authority Building (Antwerp),Venue,Belgium,51.2411,4.40735,1,24789.0,structure,,,False
Manila Metropolitan Theater,Venue,Philippines,14.5942,120.98,1,74606.0,structure,,,True
Civic Theatre (New Orleans),Venue,United_States,29.9495,-90.0742,1,5341.0,structure,,,False
Maratha Mandir,Venue,India,18.9712,72.8221,1,115857.0,structure,,,False
Manoel Theatre,Venue,Malta,35.9003,14.5125,1,23575.0,structure,,,False
White Rock Theatre,Venue,England,50.8537,0.572251,1,5825.0,structure,,,True
Solís Theatre,Venue,Uruguay,-34.9081,-56.2011,1,13513.0,structure,,,False
South African State Theatre,Venue,South_Africa,-25.7468,28.1949,1,5186.0,structure,,,True
Michigan Building,Venue,United_States,42.3347,-83.0534,1,27587.0,structure,,,False
"Mercury Theatre, Colchester",Venue,England,51.8894,0.8944,1,5296.0,structure,,,False
Indianapolis Artsgarden,Venue,United_States,39.7672,-86.1599,1,6483.0,structure,,,False
Improv Asylum,Venue,United_States,42.362,-71.056,1,5786.0,structure,,,False
St. George Theatre,Venue,United_States,40.642,-74.0775,1,13409.0,structure,,,False
St. Johns Twin Cinema,Venue,United_States,45.5906,-122.756,1,8862.0,structure,,,False
St David's Hall,Venue,Wales,51.4803,-3.17667,1,20622.0,structure,,,False
Hulme Hippodrome,Venue,United_Kingdom,53.4643,-2.24959,1,8768.0,structure,,,False
"St George's Hall, Bradford",Venue,England,53.7925,-1.7511,1,11180.0,structure,,,False
Tron Theatre,Venue,Scotland,55.8569,-4.24554,1,10328.0,structure,,,True
"Theatre Royal, Plymouth",Venue,UK,50.3699,-4.1451,1,13284.0,structure,,,False
Kalita Humphreys Theater,Venue,United_States,32.8108,-96.8007,1,19655.0,structure,,,True
Chichester Festival Theatre,Venue,England,50.843,-0.77739,1,45469.0,structure,,,False
Chicago Avenue Pumping Station,Venue,United_States,41.8972,-87.6239,1,41201.0,structure,,,False
Auezov Theater,Venue,Kazakhstan,43.2414,76.9178,1,5843.0,structure,,,False
Atlas Performing Arts Center,Venue,United_States,38.8997,-76.9875,1,6961.0,structure,,,True
Atlanta Symphony Hall,Venue,United_States,33.7892,-84.3851,1,11114.0,structure,,,True
Athens Concert Hall,Venue,Greece,37.9811,23.7542,1,14124.0,structure,,,False
Rose Wagner Performing Arts Center,Venue,United_States,40.7631,-111.896,1,10171.0,structure,,,True
State Theatre (Minneapolis),Venue,United_States,44.9768,-93.2759,1,17621.0,structure,,,False
The Emerson Theater,Venue,United_States,39.7816,-86.0909,0,6333.0,structure,,,False
Ashcroft Theatre,Venue,United_Kingdom,51.3722,-0.0953,1,6551.0,structure,,,False
Kan-O-Tex Service Station,Venue,United_States_of_America,37.0804,-94.6389,1,6621.0,structure,,,False
Karl Marx Theatre,Venue,Cuba,23.1294,-82.4196,1,7665.0,structure,,,False
Sun-Ray Cinema,Venue,United_States,30.3144,-81.6806,1,7598.0,structure,,,False
Suvarna Vidhana Soudha,Venue,India,15.8134,74.5714,1,44100.0,structure,,,True
SwissTech Convention Center,Venue,Switzerland,46.5235,6.56401,1,11121.0,structure,,,False
Sydney Convention and Exhibition Centre,Venue,Australia,-33.8759,151.2,1,30148.0,structure,,,False
Taipei Performing Arts Center,Venue,Taiwan,25.085,121.524,1,9530.0,structure,,,False
Leas Cliff Hall,Venue,England,51.0758,1.17357,1,7055.0,structure,,,False
Latvian National Opera,Venue,Latvia,56.9553,24.1047,1,23172.0,structure,,,False
Kauffman Center for the Performing Arts,Venue,United_States,39.0937,-94.5868,1,51771.0,structure,,,False
Keller Auditorium,Venue,United_States,45.5126,-122.679,1,43990.0,structure,,,False
Le Lido,Venue,France,48.8724,2.30056,1,81865.0,structure,,,True
Las Ventas,Venue,Spain,40.4321,-3.66328,1,81416.0,structure,,,False
Miller High Life Theatre,Venue,United_States,43.0418,-87.9174,1,21336.0,structure,,,False
Miller Outdoor Theatre,Venue,United_States,29.7191,-95.3887,1,12507.0,structure,,,True
Milton Keynes Theatre,Venue,England,52.0441,-0.7488,1,16933.0,structure,,,False
"Romanian National Opera, Cluj-Napoca",Venue,Romania,46.7701,23.5975,1,6045.0,structure,,,False
"Romanian National Opera, Bucharest",Venue,Romania,44.4358,26.0794,1,10398.0,structure,,,False
Nottingham Royal Concert Hall,Venue,England,52.9556,-1.15139,1,26133.0,structure,,,False
The Masque (venue),Venue,United_States,34.1008,-118.335,1,8775.0,structure,,,False
Teatro Massimo,Venue,Italy,38.1203,13.3572,1,66241.0,structure,,,False
Magnet Theater,Venue,United_States,40.7488,-73.9953,1,8194.0,structure,,,False
Yerevan Opera Theatre,Venue,Armenia,40.1858,44.515,1,25327.0,structure,,,False
Wycombe Swan,Venue,England,51.6282,-0.7504,1,8066.0,structure,,,False
Wortham Theater Center,Venue,United_States,29.7633,-95.3656,1,16520.0,structure,,,True
Christiania Theatre,Venue,Norway,59.9089,10.7414,1,5438.0,structure,,,False
Shakespeare & Company (Massachusetts),Venue,United_States,42.3486,-73.2834,1,12457.0,structure,,,False
Sheboygan Municipal Auditorium and Armory,Venue,United_States,43.7503,-87.7053,1,8205.0,structure,,,False
Sheikh Jaber Al-Ahmad Cultural Centre,Venue,Kuwait,29.36,47.9559,1,27073.0,structure,,,False
Riverside Theater (Milwaukee),Venue,United_States,43.0391,-87.9109,0,15766.0,structure,,,True
Underbelly (venue),Venue,Scotland,55.9483,-3.1925,1,7078.0,structure,,,False
Moldova National Opera Ballet,Venue,Moldova,47.0276,28.83,1,12891.0,structure,,,False
Theater Basel,Venue,Switzerland,47.5527,7.59007,1,11553.0,structure,,,False
Soma San Diego,Venue,United_States,32.754,-117.209,0,23095.0,structure,,,False
Suzanne Roberts Theatre,Venue,United_States,39.945,-75.1656,1,16903.0,structure,,,True
The Haçienda,Venue,England,53.4743,-2.24768,1,370242.0,structure,,,False
Factory Theatre,Venue,Canada,43.6456,-79.4027,1,6030.0,structure,,,False
Regent Theatre (Sydney),Venue,Australia,-33.8747,151.206,1,10705.0,structure,,,False
Ranga Shankara,Venue,India,12.9115,77.5871,1,29763.0,structure,,,False
National Theatre of Opera and Ballet of Albania,Venue,Albania,41.3286,19.8192,1,10876.0,structure,,,True
National Theatre of Japan,Venue,Japan,35.6814,139.743,1,8085.0,structure,,,False
National Theatre Bucharest,Venue,Romania,44.4366,26.1036,1,13216.0,structure,,,False
"National Theatre (Washington, D.C.)",Venue,United_States,38.8963,-77.0305,1,41221.0,structure,,,False
National Theatre (Albania),Venue,Albania,41.3265,19.8205,1,21607.0,structure,,,False
Nandan (Kolkata),Venue,India,22.6642,88.3919,1,55805.0,structure,,,False
National Arts Center,Venue,Philippines,14.1632,121.216,1,21701.0,structure,,,False
New Frontier Theater,Venue,Philippines,14.6222,121.054,1,58915.0,structure,,,False
National Bunraku Theatre,Venue,Japan,34.6675,135.509,1,5588.0,structure,,,True
National Opera of Ukraine,Venue,Ukraine,50.4467,30.5125,1,39730.0,structure,,,True
National Sylvan Theater,Venue,United_States,38.8883,-77.0344,1,6610.0,structure,,,False
National Theater of Korea,Venue,South_Korea,37.5525,127.0,1,10512.0,structure,,,False
National Noh Theatre,Venue,Japan,35.6803,139.708,1,8814.0,structure,,,False
New National Theatre Tokyo,Venue,Japan,35.6825,139.686,1,14358.0,structure,,,False
"New Theatre, Cardiff",Venue,Wales,51.4837,-3.17553,1,9598.0,structure,,,False
Orchestra Hall (Detroit),Venue,United_States,42.3487,-83.0593,1,18966.0,structure,,,False
Ordway Center for the Performing Arts,Venue,United_States,44.9448,-93.0982,1,18322.0,structure,,,False
"Orpheum Theater (Flagstaff, Arizona)",Venue,United_States,35.1985,-111.649,1,5039.0,structure,,,False
Orpheum Theatre (Minneapolis),Venue,United_States,44.9768,-93.2775,1,31298.0,structure,,,False
Radrennbahn Weissensee,Venue,Germany,52.5644,13.4578,1,6466.0,structure,,,False
Raimund Theater,Venue,Austria,48.1922,16.3397,1,11011.0,structure,,,True
"Regent Theatre, Melbourne",Venue,Australia,-37.8155,144.967,1,32114.0,structure,,,True
Newark Symphony Hall,Venue,United_States,40.7278,-74.1764,1,17677.0,structure,,,False
O'Reilly Theater,Venue,United_States,40.4432,-80.0016,1,7097.0,structure,,,False
Omaha Community Playhouse,Venue,United_States,41.2639,-96.0203,1,11936.0,structure,,,True
Odeon of Herodes Atticus,Venue,Greece,37.9708,23.7244,1,177511.0,structure,,,False
"Ohio Theatre (Cleveland, Ohio)",Venue,United_States,41.5011,-81.6811,1,8560.0,structure,,,False
Old Joint Stock Theatre,Venue,England,52.4811,-1.9,1,5782.0,structure,,,True
Old National Centre,Venue,United_States,39.7742,-86.1511,1,46891.0,structure,,,False
The Hideout Inn,Venue,United_States,41.9138,-87.6625,1,16717.0,structure,,,False
"The Electric, Birmingham",Venue,England,52.4766,-1.8987,1,14498.0,structure,,,False
Damascus Opera House,Venue,Syria,33.5122,36.2786,1,19525.0,structure,,,True
Dallas Theater Center,Venue,United_States,32.7901,-96.7963,1,17034.0,structure,,,False
Ambassador Theatre (St. Louis),Venue,United_States,38.6292,-90.1914,1,6201.0,structure,,,False
Ambassador Cinema,Venue,Ireland,53.3527,-6.2619,1,7879.0,structure,,,False
Allen Theatre,Venue,United_States,41.5011,-81.6814,1,8836.0,structure,,,False
Aliw Theater,Venue,Philippines,14.5569,120.986,1,12006.0,structure,,,True
Abbeydale Picture House,Venue,England,53.3594,-1.47992,1,6885.0,structure,,,True
Duke Energy Center for the Performing Arts,Venue,United_States,35.7713,-78.6395,1,22054.0,structure,,,True
Abraham Chavez Theatre,Venue,United_States,31.7575,-106.491,0,7660.0,structure,,,False
"Aladdin Theater (Portland, Oregon)",Venue,United_States,45.5008,-122.654,1,12468.0,structure,,,False
Durham Performing Arts Center,Venue,United_States,35.9934,-78.9022,1,29542.0,structure,,,False
Estates Theatre,Venue,Czech_Republic,50.0861,14.4239,1,49364.0,structure,,,False
Eureka Theatre Company,Venue,United_States,37.7964,-122.4,1,5090.0,structure,,,False
Farmington Civic Theatre,Venue,United_States,42.4649,-83.3761,1,9297.0,structure,,,False
Fenway Park,Venue,United_States,42.3462,-71.0977,1,1176211.0,structure,,,False
Festspielhaus Hellerau,Venue,Germany,51.1138,13.7531,1,6882.0,structure,,,True
Everyman Palace Theatre,Venue,Ireland,51.9014,-8.4682,1,5276.0,structure,,,True
AFI Silver,Venue,United_States,38.9967,-77.0276,1,12704.0,structure,,,False
Eccles Theater,Venue,United_States,40.7664,-111.891,1,9488.0,structure,,,False
Estadio Jesús Bermúdez,Venue,Bolivia,-17.9462,-67.1116,1,6619.0,structure,,,False
Tulsa Performing Arts Center,Venue,United_States,36.1542,-95.9894,1,10042.0,structure,,,False
Tropicana Club,Venue,Cuba,23.0942,-82.4189,1,77181.0,structure,,,False
Town Hall Seattle,Venue,United_States,47.6089,-122.33,1,8514.0,structure,,,False
Théâtre national de Chaillot,Venue,France,48.8623,2.28198,1,7734.0,structure,,,False
Byham Theater,Venue,United_States,40.4439,-80.0025,1,18121.0,structure,,,False
Cemal Reşit Rey Concert Hall,Venue,Turkey,41.0481,28.99,1,5059.0,structure,,,False
Thunder Bay Community Auditorium,Venue,Canada,48.4225,-89.2414,1,5880.0,structure,,,False
Triad Theatre,Venue,United_States,40.7781,-73.9809,0,8113.0,structure,,,False
Glasgow Empire Theatre,Venue,Scotland,55.8644,-4.25444,1,15257.0,structure,,,False
Heden,Venue,Sweden,57.7022,11.9778,1,6910.0,structure,,,False
Lausanne Opera,Venue,Switzerland,46.5181,6.6369,1,5255.0,structure,,,True
White Eagle Hall,Venue,United_States,40.7249,-74.0517,0,13492.0,structure,,,False
Terrapin Crossroads,Venue,United_States,37.9681,-122.517,1,33946.0,structure,,,False
Theatre by the Lake,Venue,England,54.5955,-3.1394,1,10793.0,structure,,,False
"Wilma Theatre (Missoula, Montana)",Venue,United_States,46.8689,-113.995,1,7949.0,structure,,,False
UCCU Ballpark,Venue,United_States,40.2769,-111.717,1,9059.0,structure,,,False
Warfield Theatre,Venue,United_States,37.7827,-122.41,1,21549.0,structure,,,False
Warsaw Fotoplastikon,Venue,Poland,52.2288,21.0085,1,7395.0,structure,,,True
Wellmont Theater,Venue,United_States,40.8126,-74.2166,1,10840.0,structure,,,True
Wharf Theatre,Venue,Australia,-33.8551,151.206,1,6109.0,structure,,,False
Focus Theatre,Venue,Republic_of_Ireland,53.3344,-6.25388,1,5649.0,structure,,,False
Jay Pritzker Pavilion,Venue,United_States,41.8831,-87.6219,1,128607.0,structure,,,False
Jatiya Sangsad Bhaban,Venue,Bangladesh,23.7622,90.3786,1,139649.0,structure,,,False
Iron Horse Music Hall,Venue,United_States,42.3191,-72.6317,1,8641.0,structure,,,False
Herbst Theatre,Venue,United_States,37.7797,-122.421,0,17161.0,structure,,,False
Hershey Theatre,Venue,United_States,40.2854,-76.6488,1,9088.0,structure,,,False
"Her Majesty's Theatre, Sydney",Venue,Australia,-33.8707,151.208,1,10778.0,structure,,,False
Harris and Selwyn Theaters,Venue,United_States,41.8848,-87.6299,1,13604.0,structure,,,False
The Eclipse (club),Venue,England,52.4098,-1.50176,0,5539.0,structure,,,False
Hanna Theatre,Venue,United_States,41.5003,-81.6811,1,6656.0,structure,,,False
Hanoi Opera House,Venue,Vietnam,21.0242,105.858,1,46682.0,structure,,,False
Tanghalang Francisco Balagtas,Venue,Philippines,14.5567,120.981,1,20902.0,structure,,,True
Hanover Theatre for the Performing Arts,Venue,United_States,42.2611,-71.8031,1,10414.0,structure,,,False
Harold Washington Cultural Center,Venue,United_States,41.8093,-87.6161,1,8546.0,structure,,,False
Harpa (concert hall),Venue,Iceland,64.1503,-21.9325,1,128013.0,structure,,,False
Harris Theater (Chicago),Venue,United_States,41.8839,-87.6219,1,27630.0,structure,,,False
Tennessee Performing Arts Center,Venue,United_States,36.1649,-86.7817,1,13321.0,structure,,,True
"The Alexandra, Birmingham",Venue,England,52.4763,-1.90068,1,9529.0,structure,,,False
The Anthem (music venue),Venue,United_States,38.8801,-77.026,1,68270.0,structure,,,False
Teatro Bibiena,Venue,Italy,45.1578,10.7981,1,10221.0,structure,,,False
Teatro Tapia,Venue,Puerto_Rico,18.4656,-66.1119,1,9197.0,structure,,,False
Teatro Carlo Felice,Venue,Italy,44.408,8.935,1,19292.0,structure,,,False
Fitzgerald Theater,Venue,United_States,44.9489,-93.0972,1,20760.0,structure,,,False
"Palace Theatre, Swansea",Venue,Wales,51.6275,-3.94111,1,8609.0,structure,,,False
Ovens Auditorium,Venue,United_States,35.2036,-80.7942,1,15835.0,structure,,,False
Nottingham Playhouse,Venue,UK,52.9537,-1.1577,1,21632.0,structure,,,False
"Northern Stage, Newcastle upon Tyne",Venue,United_Kingdom,54.9792,-1.6143,1,10405.0,structure,,,False
Folies Bergère,Venue,France,48.8742,2.3449,1,222040.0,structure,,,True
Ford Park,Venue,United_States,30.0099,-94.1809,1,9801.0,structure,,,False
Palace of Congresses,Venue,Albania,41.3192,19.8219,1,9389.0,structure,,,False
North Carolina Blumenthal Performing Arts Center,Venue,United_States,35.2271,-80.8415,1,18457.0,structure,,,False
Forrest Theatre,Venue,United_States,39.9486,-75.1596,1,12810.0,structure,,,True
Palomar Ballroom,Venue,United_States,34.0698,-118.292,0,8685.0,structure,,,False
"Regent Theatre, Stoke-on-Trent",Venue,England,53.0244,-2.1765,1,8743.0,structure,,,False
Danube Palace,Venue,Hungary,47.5003,19.0492,1,9610.0,structure,,,False
Paradise Garage,Venue,United_States,40.7279,-74.0064,1,137239.0,structure,,,False
Park Performing Arts Center,Venue,United_States,40.7739,-74.0304,1,5180.0,structure,,,False
Centaur Theatre,Venue,Canada,45.5034,-73.5565,1,5816.0,structure,,,False
Chat Noir,Venue,Norway,59.9136,10.7322,1,7463.0,structure,,,False
Passing Clouds,Venue,England,51.5422,-0.075567,1,6849.0,structure,,,False
Artscape Theatre Centre,Venue,South_Africa,-33.92,18.4305,1,13930.0,structure,,,True
Sunrise Musical Theater,Venue,United_States,26.1911,-80.2808,0,10160.0,structure,,,True
Gerard Behar Center,Venue,Israel,31.781,35.2129,1,9115.0,structure,,,False
Birmingham Town Hall,Venue,United_Kingdom,52.4796,-1.9037,1,70248.0,structure,,,False
Birmingham Hippodrome,Venue,England,52.4746,-1.8976,1,46072.0,structure,,,False
Bing Concert Hall,Venue,United_States,37.4319,-122.166,1,14269.0,structure,,,False
Bergen Performing Arts Center,Venue,United_States,40.8953,-73.9749,1,8236.0,structure,,,False
Belgrade Theatre,Venue,England,52.4096,-1.512,1,28881.0,structure,,,True
Beck Theatre,Venue,United_Kingdom,51.5215,-0.4234,1,7621.0,structure,,,False
Barombong Stadium,Venue,Indonesia,-5.20186,119.383,0,6345.0,structure,,,True
Patchogue Theatre,Venue,United_States,40.7657,-73.0134,1,17461.0,structure,,,False
Hull New Theatre,Venue,England,53.747,-0.336,1,24194.0,structure,,,False
Delamere Park,Venue,England,53.2525,-2.62281,1,5631.0,structure,,,False
DeLaMar,Venue,Netherlands,52.3643,4.8809,1,5051.0,structure,,,False
Bradford Playhouse,Venue,England,53.7938,-1.74554,1,5184.0,structure,,,False
Quadrant:MK,Venue,England,52.0377,-0.775014,1,7290.0,structure,,,False
Princess Theatre (Edmonton),Venue,Canada,53.5178,-113.496,1,11008.0,structure,,,True
Bellevue Teatret,Venue,Denmark,55.7776,12.5899,1,5162.0,structure,,,False
Casa Mañana,Venue,United_States,32.746,-97.3625,1,11057.0,structure,,,False
Capitol Theater (Manila),Venue,Philippines,14.5972,120.978,1,13194.0,structure,,,False
Cadle Tabernacle,Venue,United_States,39.77,-86.1511,1,6364.0,structure,,,False
"Queens Park, Invercargill",Venue,New_Zealand,-46.4016,168.356,1,5194.0,structure,,,True
San Jose Center for the Performing Arts,Venue,United_States,37.33,-121.892,1,30766.0,structure,,,True
San Diego Civic Theatre,Venue,United_States,32.7172,-117.162,1,18551.0,structure,,,False
Royce Hall,Venue,United_States,34.0728,-118.442,1,51311.0,structure,,,False
Royal Spa Centre,Venue,England,52.2887,-1.5317,1,5005.0,structure,,,False
Royal Oak Music Theatre,Venue,United_States,42.4873,-83.1474,1,13238.0,structure,,,False
Rostov State Musical Theater,Venue,Russia,47.2247,39.7325,1,5009.0,structure,,,False
Rossiya Theatre,Venue,Russia,55.7661,37.6075,1,5238.0,structure,,,True
Roseland Theater,Venue,United_States,45.5233,-122.676,1,52739.0,structure,,,False
Richard B. Fisher Center for the Performing Arts,Venue,United_States,42.0313,-73.9027,1,16938.0,structure,,,False
Citizens Theatre,Venue,Scotland,55.851,-4.253,1,23672.0,structure,,,False
Cincinnati Music Hall,Venue,United_States,39.1094,-84.5189,1,50812.0,structure,,,True
Church Hill Theatre,Venue,Scotland,55.9328,-3.21002,1,5297.0,structure,,,False
Chrysler Hall,Venue,United_States,36.8521,-76.2864,1,21403.0,structure,,,False
Tyne Theatre and Opera House,Venue,England,54.9705,-1.62101,1,10595.0,structure,,,False
Sarajevo National Theatre,Venue,Bosnia_and_Herzegovina,43.8569,18.4208,1,6802.0,structure,,,False
Orpheum Theatre (Los Angeles),Venue,United_States,34.0427,-118.255,1,80264.0,structure,,,False
Oriental Theatre (Milwaukee),Venue,United_States,43.0597,-87.8857,1,15140.0,structure,,,False
Meadow Brook Amphitheatre,Venue,United_States,42.6763,-83.2031,0,12181.0,structure,,,False
McCallum Theatre,Venue,United_States,33.7297,-116.389,0,6501.0,structure,,,False
Salle Pleyel,Venue,France,48.877,2.30104,1,32754.0,structure,,,False
"Saenger Theatre (Pensacola, Florida)",Venue,United_States,30.4103,-87.2147,1,11089.0,structure,,,False
Club Fugazi,Venue,United_States,37.7992,-122.41,1,16046.0,structure,,,False
Cobb Energy Performing Arts Centre,Venue,United_States,33.8838,-84.4581,1,26065.0,structure,,,True
Coliseu do Porto,Venue,Portugal,41.1468,-8.60551,1,14679.0,structure,,,False
Genesian Theatre,Venue,Australia,-33.872,151.205,1,5975.0,structure,,,True
Gelora Joko Samudro Stadium,Venue,Indonesia,-7.18539,112.651,1,6991.0,structure,,,True
Gelora Delta Stadium,Venue,Indonesia,-7.44772,112.706,1,11082.0,structure,,,False
Saban Theatre,Venue,United_States,34.0647,-118.375,1,39154.0,structure,,,True
Gammage Memorial Auditorium,Venue,United_States,33.4163,-111.938,1,31583.0,structure,,,False
"Gaiety Theatre, Dublin",Venue,Republic_of_Ireland,53.3403,-6.2616,1,33501.0,structure,,,False
Futurist Theatre,Venue,England,54.2824,-0.394,1,14033.0,structure,,,True
Embassy Theatre (London),Venue,United_Kingdom,51.5442,-0.1738,1,6095.0,structure,,,False
Civic Center Music Hall,Venue,United_States,35.469,-97.5234,0,10344.0,structure,,,False
The Sugarmill,Venue,England,53.025,-2.17833,0,5182.0,structure,,,False
"Gaiety Theatre, Isle of Man",Venue,Isle_of_Man,54.155,-4.478,1,9831.0,structure,,,False
Det Ny Teater,Venue,Denmark,55.6733,12.5553,1,7078.0,structure,,,False
"Victoria Hall, Stoke-on-Trent",Venue,England,53.0231,-2.1752,1,10768.0,structure,,,True
Riverway Stadium,Venue,Australia,-19.3172,146.732,0,8060.0,structure,,,False
Valle Hovin,Venue,Norway,59.9186,10.8039,1,16334.0,structure,,,True
Unicorn Theatre,Venue,United_Kingdom,51.5045,-0.081677,1,15521.0,structure,,,True
Under the Gun Theater,Venue,United_States,41.9446,-87.654,1,18001.0,structure,,,False
Cutler Majestic Theatre,Venue,United_States,42.3516,-71.0651,1,15274.0,structure,,,False
"Rio Cinema, Dalston",Venue,United_Kingdom,51.5496,-0.0756,1,9145.0,structure,,,False
D. Maria II National Theatre,Venue,Portugal,38.7148,-9.1398,1,9684.0,structure,,,True
Dundonald International Ice Bowl,Venue,Northern_Ireland,54.587,-5.818,0,6592.0,structure,,,False
Crest Theatre,Venue,United_States,38.5793,-121.493,1,13092.0,structure,,,False
Crescent Theatre,Venue,England,52.4773,-1.91541,1,5055.0,structure,,,False
Théâtre de Liège,Venue,Belgium,50.6407,5.5746,1,13249.0,structure,,,False
Colonial Theatre (Boston),Venue,United_States,42.3523,-71.0654,1,35300.0,structure,,,True
Constitution Club of India,Venue,India,28.6204,77.2134,1,22736.0,structure,,,False
Taibhdhearc na Gaillimhe,Venue,Republic_of_Ireland,53.2739,-9.04833,1,6732.0,structure,,,False
Coronado Theatre,Venue,United_States,42.2739,-89.0931,1,21447.0,structure,,,False
Burbo Bank Offshore Wind Farm,PowerStation,England,53.4833,-3.16667,1,38808.0,structure,,,False
Bâtiment des Forces motrices,PowerStation,Switzerland,46.2047,6.13813,1,5565.0,structure,,,False
Burgos Wind Farm,PowerStation,Philippines,18.5161,120.646,1,17418.0,structure,,,False
Burshtyn TES,PowerStation,Ukraine,49.2104,24.6665,1,6773.0,structure,,,False
Bushehr Nuclear Power Plant,PowerStation,Iran,28.8296,50.886,1,74091.0,structure,,,False
Cattenom Nuclear Power Plant,PowerStation,France,49.4158,6.21806,1,37201.0,structure,,,False
Cerro Dominador Solar Thermal Plant,PowerStation,Chile,-22.7719,-69.4799,1,16738.0,structure,,,False
Cernavodă Nuclear Power Plant,PowerStation,Romania,44.3222,28.0572,1,76297.0,structure,,,False
Cestas Solar Park,PowerStation,France,44.7211,-0.810833,1,7121.0,structure,,,False
Tianwan Nuclear Power Plant,PowerStation,China,34.6869,119.46,1,26888.0,structure,,,False
Tihange Nuclear Power Station,PowerStation,Belgium,50.5346,5.27253,1,37025.0,structure,,,True
Ankerlig Power Station,PowerStation,South_Africa,-33.5922,18.4603,0,9689.0,structure,,,False
Bunnerong Power Station,PowerStation,Australia,-33.9714,151.227,1,6499.0,structure,,,True
Ballylumford power station,PowerStation,UK,54.845,-5.787,1,21122.0,structure,,,False
Bruce Nuclear Generating Station,PowerStation,Canada,44.3253,-81.5994,1,237447.0,structure,,,False
Żarnowiec Nuclear Power Plant,PowerStation,Poland,54.7432,18.0889,1,17930.0,structure,,,False
Avedøre Power Station,PowerStation,Denmark,55.6028,12.4792,1,20369.0,structure,,,False
Azura (wave power device),PowerStation,United_States,21.4649,-157.752,1,6562.0,structure,,,False
BN-350 reactor,PowerStation,Kazakhstan,43.607,51.283,1,24728.0,structure,,,False
Baglan Bay power station,PowerStation,United_Kingdom,51.6197,-3.82964,1,8495.0,structure,,,False
Bandel Thermal Power Station,PowerStation,India,22.9952,88.4053,1,13034.0,structure,,,False
Bankside Power Station,PowerStation,United_Kingdom,51.5076,-0.09897,1,105962.0,structure,,,False
Barakah nuclear power plant,PowerStation,United_Arab_Emirates,23.9678,52.2317,1,173597.0,structure,,,False
Brokdorf Nuclear Power Plant,PowerStation,Germany,53.8508,9.34472,1,14213.0,structure,,,True
Sizewell C nuclear power station,PowerStation,England,52.215,1.61972,0,8095.0,structure,,,False
Shree Singaji Thermal Power Project,PowerStation,India,22.1028,76.5361,0,26868.0,structure,,,True
Shoaiba Power and Desalination Plant,PowerStation,Saudi_Arabia,20.6801,39.5232,0,7503.0,structure,,,False
Ling Ao Nuclear Power Plant,PowerStation,China,22.6048,114.551,0,10192.0,structure,,,False
Macarthur Wind Farm,PowerStation,Australia,-38.049,142.191,0,16004.0,structure,,,False
Madras Atomic Power Station,PowerStation,India,12.5575,80.175,0,122382.0,structure,,,False
Maithon Power Plant,PowerStation,India,23.7472,86.75,0,25539.0,structure,,,True
Majuba Power Station,PowerStation,South_Africa,-27.1006,29.7714,0,15225.0,structure,,,True
Anholt Offshore Wind Farm,PowerStation,Denmark,56.6,11.21,1,20738.0,structure,,,False
Anglesea Power Station,PowerStation,Australia,-38.389,144.181,1,9220.0,structure,,,False
Angra Nuclear Power Plant,PowerStation,Brazil,-23.0083,-44.4572,1,36676.0,structure,,,False
Annapolis Royal Generating Station,PowerStation,Canada,44.7519,-65.5111,1,28403.0,structure,,,False
Leibstadt Nuclear Power Plant,PowerStation,Switzerland,47.6031,8.18472,1,25885.0,structure,,,False
Lemóniz Nuclear Power Plant,PowerStation,Spain,43.4333,-2.8725,1,7407.0,structure,,,False
Leningrad Nuclear Power Plant,PowerStation,Russia,59.8525,29.0486,1,182364.0,structure,,,False
Lennox Generating Station,PowerStation,Canada,44.1461,-76.8525,1,15168.0,structure,,,False
Lillgrund Wind Farm,PowerStation,Sweden,55.5167,12.7833,1,12963.0,structure,,,False
Mishor Rotem Power Station,PowerStation,Israel,31.0553,35.1844,0,5623.0,structure,,,False
Lincs Wind Farm,PowerStation,United_Kingdom,53.1833,0.483333,1,18354.0,structure,,,False
Mohammed bin Rashid Al Maktoum Solar Park,PowerStation,United_Arab_Emirates,24.7547,55.365,0,50876.0,structure,,,False
Moorside nuclear power station,PowerStation,United_Kingdom,54.4296,-3.5109,0,17037.0,structure,,,False
Mount Piper Power Station,PowerStation,Australia,-33.3589,150.032,0,21660.0,structure,,,False
Mount Signal Solar,PowerStation,United_States,32.6733,-115.64,0,14148.0,structure,,,True
Lingen Nuclear Power Plant,PowerStation,Germany,52.4828,7.30694,1,5075.0,structure,,,True
Sizewell nuclear power stations,PowerStation,United_Kingdom,52.215,1.61972,1,156213.0,structure,,,False
Smolensk Nuclear Power Plant,PowerStation,Russia,54.1661,33.2392,1,70132.0,structure,,,False
Stanwell Power Station,PowerStation,Australia,-23.5097,150.319,1,11113.0,structure,,,False
Staythorpe Power Station,PowerStation,England,53.0748,-0.85573,1,14717.0,structure,,,True
Strasskirchen Solar Park,PowerStation,Germany,48.8069,12.7603,1,5018.0,structure,,,False
Sual Power Station,PowerStation,Philippines,16.125,120.101,1,18429.0,structure,,,False
Zaporizhzhia Nuclear Power Plant,PowerStation,Ukraine,47.5083,34.5844,1,20154.0,structure,,,True
Ågesta Nuclear Plant,PowerStation,Sweden,59.206,18.0829,1,10963.0,structure,,,False
Lippendorf Power Station,PowerStation,Germany,51.1853,12.3778,1,10245.0,structure,,,False
Lough Ree Power Station,PowerStation,Republic_of_Ireland,53.6744,-7.98389,1,8382.0,structure,,,False
Loviisa Nuclear Power Plant,PowerStation,Finland,60.3722,26.3472,1,33240.0,structure,,,False
Loy Yang Power Station,PowerStation,Australia,-38.2544,146.577,1,54953.0,structure,,,False
Lucens reactor,PowerStation,Switzerland,46.6928,6.82689,1,60557.0,structure,,,False
Mangahao Power Station,PowerStation,New_Zealand,-40.5767,175.45,1,7223.0,structure,,,False
Lynn and Inner Dowsing Wind Farms,PowerStation,United_Kingdom,53.1275,0.436111,1,8861.0,structure,,,False
Maanshan Nuclear Power Plant,PowerStation,Taiwan,21.9583,120.751,1,12249.0,structure,,,False
Maine Yankee Nuclear Power Plant,PowerStation,United_States,43.9506,-69.6958,1,34311.0,structure,,,False
Malitbog Geothermal Power Station,PowerStation,Philippines,11.1519,124.649,1,19927.0,structure,,,False
Lungmen Nuclear Power Plant,PowerStation,Republic_of_China,25.0386,121.924,1,22488.0,structure,,,False
Dublin Waste-to-Energy Facility,PowerStation,Ireland,53.3419,-6.20081,1,11108.0,structure,,,True
Dürnrohr Power Station,PowerStation,Austria,48.3256,15.9236,1,7079.0,structure,,,True
East Anglia Array,PowerStation,United_Kingdom,52.9078,2.62861,1,21504.0,structure,,,False
Fawley Power Station,PowerStation,England,50.8167,-1.32888,1,44746.0,structure,,,True
Trillo Nuclear Power Plant,PowerStation,Spain,40.7011,-2.62194,0,8130.0,structure,,,False
Dukovany Nuclear Power Station,PowerStation,Czech_Republic,49.085,16.1489,1,28320.0,structure,,,False
Drammen Heat Pump,PowerStation,Norway,59.7408,10.23,1,5897.0,structure,,,False
Alholmens Kraft Power Station,PowerStation,Finland,63.7019,22.7097,1,9918.0,structure,,,True
Almaraz Nuclear Power Plant,PowerStation,Spain,39.8081,-5.69694,1,22346.0,structure,,,False
Alpha Ventus Offshore Wind Farm,PowerStation,Germany,54.0167,6.6,1,16015.0,structure,,,False
Amager Bakke,PowerStation,Denmark,55.6844,12.62,1,106171.0,structure,,,False
Amercentrale,PowerStation,Netherlands,51.7094,4.84333,1,6191.0,structure,,,True
Crystal Rig Wind Farm,PowerStation,Scotland,55.9,-2.55,1,8120.0,structure,,,False
Dabhol Power Station,PowerStation,India,17.5597,73.1664,1,42036.0,structure,,,True
Dagenham wind turbines,PowerStation,England,51.5219,0.151111,1,6184.0,structure,,,False
Dan River Steam Station,PowerStation,United_States_of_America,36.487,-79.718,1,5414.0,structure,,,False
Darling Wind Farm,PowerStation,South_Africa,-33.3169,18.2594,1,5286.0,structure,,,False
Andasol Solar Power Station,PowerStation,Spain,37.2285,-3.06854,1,22617.0,structure,,,False
Triton Knoll,PowerStation,United_Kingdom,53.4,0.9,0,19684.0,structure,,,True
ASTRID (reactor),PowerStation,France,44.1428,4.70889,0,19261.0,structure,,,True
Alvarado I,PowerStation,Spain,38.8269,-6.82611,0,6662.0,structure,,,True
Amarkantak Thermal Power Station,PowerStation,India,23.1639,81.6378,0,13429.0,structure,,,False
Aguçadoura Wave Farm,PowerStation,Portugal,41.4325,-8.8425,1,24929.0,structure,,,False
Tuanku Jaafar Power Station,PowerStation,Malaysia,2.533,101.791,0,7175.0,structure,,,False
Tuoketuo Power Station,PowerStation,People's_Republic_of_China,40.1969,111.364,0,41570.0,structure,,,False
Tutuka Power Station,PowerStation,South_Africa,-26.7786,29.3519,0,9866.0,structure,,,False
Wayang Windu Geothermal Power Station,PowerStation,Indonesia,-7.2,107.625,0,7146.0,structure,,,False
Welspun Solar MP project,PowerStation,India,24.6907,75.1347,0,16380.0,structure,,,False
West County Energy Center,PowerStation,United_States,26.7,-80.375,0,12208.0,structure,,,False
Agios Dimitrios Power Plant,PowerStation,Greece,40.3938,21.9251,1,10451.0,structure,,,False
Aberthaw power stations,PowerStation,United_Kingdom,51.3873,-3.40487,1,27369.0,structure,,,True
Buck Steam Station,PowerStation,United_States_of_America,35.7119,-80.3769,0,14356.0,structure,,,True
Buksefjord hydroelectric power plant,PowerStation,Greenland,63.9211,-50.8906,0,36506.0,structure,,,False
CIAL Solar Power Project,PowerStation,India,10.1518,76.393,0,36983.0,structure,,,True
Cerro Prieto Geothermal Power Station,PowerStation,Mexico,32.4119,-115.245,0,11514.0,structure,,,False
Tidal Lagoon Swansea Bay,PowerStation,Wales,51.5977,-3.9064,0,47885.0,structure,,,False
Balloki Power Plant,PowerStation,Pakistan,31.1887,73.8895,0,15775.0,structure,,,False
Tomari Nuclear Power Plant,PowerStation,Japan,43.0361,140.512,1,11607.0,structure,,,False
Azura Thermal Power Station,PowerStation,Nigeria,6.40889,5.68361,0,7800.0,structure,,,False
Topaz Solar Farm,PowerStation,United_States,35.3833,-120.067,1,76581.0,structure,,,False
Toppila Power Station,PowerStation,Finland,65.038,25.4356,1,5398.0,structure,,,False
Torness nuclear power station,PowerStation,United_Kingdom,55.968,-2.40908,1,29725.0,structure,,,True
West Burton power stations,PowerStation,England,53.361,-0.811,1,32871.0,structure,,,False
West Offaly Power Station,PowerStation,Republic_of_Ireland,53.2728,-8.03889,1,9186.0,structure,,,False
West of Duddon Sands Wind Farm,PowerStation,United_Kingdom,53.983,-3.463,1,14068.0,structure,,,False
Westermost Rough Wind Farm,PowerStation,United_Kingdom,53.805,0.149,1,9259.0,structure,,,True
White Bay Power Station,PowerStation,Australia,-33.8667,151.177,1,23031.0,structure,,,False
Whitelee Wind Farm,PowerStation,Scotland,55.7125,-4.34111,1,55273.0,structure,,,True
Windpark Noordoostpolder,PowerStation,Netherlands,52.721,5.583,1,7434.0,structure,,,False
Windy Hill Wind Farm,PowerStation,Australia,-17.5922,145.531,1,9266.0,structure,,,False
White Cliffs Solar Power Station,PowerStation,Australia,-30.8556,143.089,1,6247.0,structure,,,False
Wallerawang Power Station,PowerStation,Australia,-33.4039,150.084,1,16486.0,structure,,,False
Touwsrivier CPV Solar Project,PowerStation,South_Africa,-33.4106,19.9264,1,5262.0,structure,,,False
Trawsfynydd nuclear power station,PowerStation,Wales,52.9249,-3.94844,1,76067.0,structure,,,False
Trojan Nuclear Power Plant,PowerStation,United_States,46.0383,-122.885,1,79368.0,structure,,,True
Tsuruga Nuclear Power Plant,PowerStation,Japan,35.7519,136.019,1,11552.0,structure,,,False
Turceni Power Station,PowerStation,Romania,44.6697,23.4078,1,7805.0,structure,,,True
Tuticorin Thermal Power Station,PowerStation,India,8.76417,78.1767,1,30535.0,structure,,,False
Tōkai Nuclear Power Plant,PowerStation,Japan,36.4664,140.607,1,31568.0,structure,,,False
Wairakei Power Station,PowerStation,New_Zealand,-38.6269,176.105,1,21037.0,structure,,,False
Ekibastuz GRES-2 Power Station,PowerStation,Kazakhstan,52.024,75.4762,1,65240.0,structure,,,False
Pragati-III Combined Cycle Power Plant,PowerStation,India,28.7947,77.07,0,5921.0,structure,,,False
Puertollano Photovoltaic Park,PowerStation,Spain,38.6217,-3.97472,0,5017.0,structure,,,False
Putrajaya Power Station,PowerStation,Malaysia,2.96735,101.682,0,5869.0,structure,,,False
Queen Elizabeth Power Station,PowerStation,Canada,52.0953,-106.706,0,6524.0,structure,,,False
Rooppur Nuclear Power Plant,PowerStation,Bangladesh,24.0667,89.0472,0,186052.0,structure,,,True
Rosa Thermal Power Plant,PowerStation,India,27.8186,79.9374,0,31163.0,structure,,,False
Calatagan Solar Farm,PowerStation,Philippines,13.9233,120.67,0,11029.0,structure,,,False
José Cabrera Nuclear Power Station,PowerStation,Spain,40.3492,-2.88444,1,6674.0,structure,,,False
Little Cheyne Court Wind Farm,PowerStation,United_Kingdom,50.9625,0.820278,1,5984.0,structure,,,False
Littlebrook Power Station,PowerStation,England,51.4653,0.241667,1,26642.0,structure,,,False
Paulo Afonso Hydroelectric Complex,PowerStation,Brazil,-9.39694,-38.2022,1,5033.0,structure,,,False
Pembroke Power Station,PowerStation,United_Kingdom,51.6831,-4.98842,1,14974.0,structure,,,False
Penny's Bay Power Station,PowerStation,Hong_Kong,22.3206,114.042,1,5489.0,structure,,,True
Penzhin Tidal Power Plant Project,PowerStation,Russia,61.0,162.0,1,32122.0,structure,,,False
Reykjanes Power Station,PowerStation,Iceland,63.8264,-22.6819,1,8179.0,structure,,,True
Rheinsberg Nuclear Power Plant,PowerStation,Germany,53.147,12.9902,1,13002.0,structure,,,False
Cadiz Solar Power Plant,PowerStation,Philippines,10.9208,123.296,0,6598.0,structure,,,False
Huntly Power Station,PowerStation,New_Zealand,-37.5439,175.153,1,48280.0,structure,,,False
Hongyanhe Nuclear Power Plant,PowerStation,China,39.7958,121.481,0,10994.0,structure,,,False
Huanghe Hydropower Golmud Solar Park,PowerStation,China,36.4,95.125,0,10136.0,structure,,,False
Bitta Solar Power Plant,PowerStation,India,23.2628,69.0242,0,5241.0,structure,,,False
Santaldih Thermal Power Station,PowerStation,India,23.6014,86.4669,0,15047.0,structure,,,False
Sasan Ultra Mega Power Project,PowerStation,India,23.9656,82.625,0,47235.0,structure,,,False
Satpura Thermal Power Station,PowerStation,India,22.1111,78.1733,0,22190.0,structure,,,False
Barron Gorge Hydroelectric Power Station,PowerStation,Australia,-16.8511,145.647,0,8065.0,structure,,,False
Belene Nuclear Power Plant,PowerStation,Bulgaria,43.6294,25.1867,0,29630.0,structure,,,True
Benban Solar Park,PowerStation,Egypt,24.456,32.739,0,54645.0,structure,,,False
Humber Gateway Wind Farm,PowerStation,England,53.644,0.293,1,10993.0,structure,,,False
Sanjay Gandhi Thermal Power Station,PowerStation,India,23.3058,81.065,1,16687.0,structure,,,False
Sanmen Nuclear Power Station,PowerStation,China,29.1011,121.642,1,32182.0,structure,,,True
Santa María de Garoña Nuclear Power Plant,PowerStation,Spain,42.7753,-3.20729,1,6770.0,structure,,,False
Schwarze Pumpe power station,PowerStation,Germany,51.5361,14.3533,1,15343.0,structure,,,False
Barry Power Station,PowerStation,United_Kingdom,51.4081,-3.22871,1,5432.0,structure,,,False
Barsebäck Nuclear Power Plant,PowerStation,Sweden,55.7444,12.9208,1,24728.0,structure,,,False
Bataan Nuclear Power Plant,PowerStation,Philippines,14.6291,120.314,1,216475.0,structure,,,True
Bayswater Power Station,PowerStation,Australia,-32.3958,150.949,1,34117.0,structure,,,False
Beaver Valley Nuclear Power Station,PowerStation,United_States,40.6233,-80.4306,1,36288.0,structure,,,False
Beinn an Tuirc windfarm,PowerStation,Scotland,55.5714,-5.57611,1,5221.0,structure,,,False
Beles Hydroelectric Power Plant,PowerStation,Ethiopia,11.8194,36.9189,1,15979.0,structure,,,False
Bell Bay Power Station,PowerStation,Australia,-41.1419,146.902,1,6841.0,structure,,,False
Bellefonte Nuclear Plant,PowerStation,United_States,34.7086,-85.9292,1,34622.0,structure,,,False
Belwind,PowerStation,Belgium,51.66,2.8,1,6444.0,structure,,,True
Benton County Wind Farm,PowerStation,United_States,40.6861,-87.4088,1,10828.0,structure,,,True
San Juan Generating Station,PowerStation,United_States,36.802,-108.439,1,6156.0,structure,,,False
San Carlos BioPower,PowerStation,Philippines,10.51,123.421,1,5006.0,structure,,,False
Caparispisan Wind Farm,PowerStation,Philippines,18.6225,120.81,1,9393.0,structure,,,False
Połaniec Power Station,PowerStation,Poland,50.4374,21.3371,1,6098.0,structure,,,False
Princess Amalia Wind Farm,PowerStation,Netherlands,52.59,4.22,1,7095.0,structure,,,True
Project West Wind,PowerStation,New_Zealand,-41.2764,174.66,1,7659.0,structure,,,False
Prototype Fast Breeder Reactor,PowerStation,India,12.5531,80.1733,1,69613.0,structure,,,False
Provence Power Station,PowerStation,France,43.4694,5.48611,1,5383.0,structure,,,False
Prunéřov Power Station,PowerStation,Czech_Republic,50.418,13.259,1,5186.0,structure,,,False
Rocksavage Power Station,PowerStation,England,53.3154,-2.72541,1,12981.0,structure,,,True
Roosecote Power Station,PowerStation,England,54.105,-3.18773,1,6827.0,structure,,,False
Rostock Power Station,PowerStation,Germany,54.1414,12.1319,1,6021.0,structure,,,True
Punggye-ri Nuclear Test Site,PowerStation,North_Korea,41.2781,129.087,1,72814.0,structure,,,True
Beryozovskaya GRES,PowerStation,Russia,55.5794,89.0725,1,6052.0,structure,,,True
Delabole wind farm,PowerStation,England,50.633,-4.708,1,8440.0,structure,,,True
Desert Sunlight Solar Farm,PowerStation,United_States,33.8214,-115.394,1,34346.0,structure,,,True
Holyrood Thermal Generating Station,PowerStation,Canada,47.4528,-53.0955,1,6458.0,structure,,,False
Hornsea Wind Farm,PowerStation,United_Kingdom,53.885,1.791,1,132747.0,structure,,,False
Hrazdan Thermal Power Plant,PowerStation,Armenia,40.5656,44.7508,1,6044.0,structure,,,False
Hsinta Power Plant,PowerStation,Taiwan,22.8564,120.197,1,5736.0,structure,,,True
Horns Rev Offshore Wind Farm,PowerStation,Denmark,55.5297,7.90611,1,21848.0,structure,,,False
Daya Bay Nuclear Power Plant,PowerStation,China,22.5972,114.544,1,45408.0,structure,,,False
Brennilis Nuclear Power Plant,PowerStation,France,48.3533,-3.8722,1,16890.0,structure,,,False
Beznau Nuclear Power Plant,PowerStation,Switzerland,47.5521,8.22849,1,31436.0,structure,,,False
Bhadla Solar Park,PowerStation,India,27.5397,71.9153,1,151691.0,structure,,,False
Davis–Besse Nuclear Power Station,PowerStation,United_States,41.5967,-83.0864,1,97920.0,structure,,,False
Blue Canyon Wind Farm,PowerStation,United_States,34.8603,-98.5825,1,7287.0,structure,,,True
Blyth Offshore Wind Farm,PowerStation,England,55.1358,-1.49028,1,13777.0,structure,,,False
Bobov Dol Power Plant,PowerStation,Bulgaria,42.2856,23.0328,1,5170.0,structure,,,True
Bohunice Nuclear Power Plant,PowerStation,Slovakia,48.4944,17.6819,1,32389.0,structure,,,True
Bokpoort CSP,PowerStation,South_Africa,-28.7377,21.9972,1,8531.0,structure,,,False
Borssele Nuclear Power Station,PowerStation,Netherlands,51.4308,3.71833,1,24543.0,structure,,,True
Bradwell nuclear power station,PowerStation,England,51.7414,0.896944,1,70608.0,structure,,,False
Braes of Doune Wind Farm,PowerStation,Scotland,56.2761,-4.0625,1,5850.0,structure,,,True
Pen y Cymoedd,PowerStation,Wales,51.711,-3.562,0,5087.0,structure,,,True
Thermal Power Plant 27,PowerStation,Russia,55.9161,37.6878,1,5449.0,structure,,,False
Thorntonbank Wind Farm,PowerStation,Belgium,51.5455,2.92978,1,23983.0,structure,,,False
Thorpe Marsh Power Station,PowerStation,England,53.5806,-1.08534,1,11377.0,structure,,,False
Collinsville Power Station,PowerStation,Australia,-20.5433,147.807,0,5957.0,structure,,,False
Colongra Power Station,PowerStation,Australia,-33.2106,151.542,0,8007.0,structure,,,False
Coryton Power Station,PowerStation,United_Kingdom,51.512,0.508,0,6742.0,structure,,,False
NTPC Ramagundam,PowerStation,India,18.755,79.4561,1,65496.0,structure,,,False
Mülheim-Kärlich Nuclear Power Plant,PowerStation,Germany,50.4081,7.49,1,14477.0,structure,,,True
Mühleberg Nuclear Power Plant,PowerStation,Switzerland,46.9689,7.26806,1,16517.0,structure,,,False
Mochovce Nuclear Power Plant,PowerStation,Slovakia,48.2639,18.4569,1,37503.0,structure,,,False
Montalto di Castro Nuclear Power Station,PowerStation,Italy,42.3588,11.5314,1,5939.0,structure,,,True
Moura Photovoltaic Power Station,PowerStation,Portugal,38.1889,-7.20222,1,8144.0,structure,,,False
Munmorah Power Station,PowerStation,Australia,-33.2118,151.542,1,10698.0,structure,,,True
Murra Warra Wind Farm,PowerStation,Australia,-36.431,142.321,1,9670.0,structure,,,False
Muskingum River Power Plant,PowerStation,United_States,39.5883,-81.6825,1,6361.0,structure,,,True
Mutriku Breakwater Wave Plant,PowerStation,Spain,43.312,-2.3781,1,8861.0,structure,,,False
Mátra Power Plant,PowerStation,Hungary,47.7903,20.0625,1,5797.0,structure,,,True
Mountaineer Wind Energy Center,PowerStation,United_States,39.184,-79.5356,1,5202.0,structure,,,False
Matla Power Station,PowerStation,South_Africa,-26.2825,29.1408,0,9784.0,structure,,,False
Fujairah F2 IWPP,PowerStation,United_Arab_Emirates,25.3019,56.3728,0,6021.0,structure,,,True
Fuqing Nuclear Power Plant,PowerStation,China,25.4458,119.447,0,14976.0,structure,,,False
Garissa Solar Power Station,PowerStation,Kenya,-0.34,39.6008,0,8282.0,structure,,,True
Ekibastuz GRES-1,PowerStation,Kazakhstan,51.8864,75.3767,0,5312.0,structure,,,True
Geregu nuclear power plant,PowerStation,Nigeria,7.57,6.69,0,6930.0,structure,,,False
Gilgel Gibe II Power Station,PowerStation,Ethiopia,7.75694,37.5622,0,12639.0,structure,,,False
Gravelines Nuclear Power Station,PowerStation,France,51.0153,2.13611,1,22585.0,structure,,,False
Sahiwal Coal Power Project,PowerStation,Pakistan,30.7153,73.2389,0,38372.0,structure,,,False
Sakri solar plant,PowerStation,India,20.9833,74.3167,0,13581.0,structure,,,True
Visaginas Nuclear Power Plant,PowerStation,Lithuania,55.6057,26.5758,1,24549.0,structure,,,False
Uch Power Plant,PowerStation,Pakistan,28.5828,68.1783,0,15477.0,structure,,,False
Udupi Power Plant,PowerStation,India,13.1597,74.8,0,37254.0,structure,,,True
Ukai Thermal Power Station,PowerStation,India,21.2101,73.5573,0,21833.0,structure,,,False
Viking Wind Farm,PowerStation,Scotland,60.3066,-1.22077,0,9250.0,structure,,,False
Vindeby Offshore Wind Farm,PowerStation,Denmark,54.97,11.13,0,19260.0,structure,,,True
Coolkeeragh power station,PowerStation,Northern_Ireland,55.0437,-7.249,1,8746.0,structure,,,False
Copper Mountain Solar Facility,PowerStation,United_States,35.7833,-114.992,1,20680.0,structure,,,False
Cottam power stations,PowerStation,England,53.304,-0.7815,1,32516.0,structure,,,True
Cruas Nuclear Power Plant,PowerStation,France,44.6331,4.75667,1,11363.0,structure,,,False
Vindhyachal Thermal Power Station,PowerStation,India,24.0972,82.6736,1,52772.0,structure,,,False
Rewa Ultra Mega Solar,PowerStation,India,24.4802,81.5744,0,128844.0,structure,,,False
Riga Hydroelectric Power Plant,PowerStation,Latvia,56.8522,24.2719,1,6873.0,structure,,,False
Ringhals Nuclear Power Plant,PowerStation,Sweden,57.2597,12.1108,1,38931.0,structure,,,False
Rivne Nuclear Power Plant,PowerStation,Ukraine,51.3278,25.8917,1,24359.0,structure,,,False
Ugljevik Power Plant,PowerStation,Bosnia_and_Herzegovina,44.6819,18.9672,1,6106.0,structure,,,False
Uskmouth power stations,PowerStation,Wales,51.5491,-2.97054,1,14804.0,structure,,,False
Vallur Thermal Power Station,PowerStation,India,13.2339,80.3058,1,30353.0,structure,,,False
Vasilikos Power Station,PowerStation,Cyprus,34.7286,33.29,1,13301.0,structure,,,False
Uranquinty Power Station,PowerStation,Australia,-35.1803,147.217,1,7213.0,structure,,,False
Matimba Power Station,PowerStation,South_Africa,-23.6683,27.6106,1,15799.0,structure,,,False
Mauda Super Thermal Power Station,PowerStation,India,21.1797,79.3972,1,24497.0,structure,,,True
Elektrėnai Power Plant,PowerStation,Lithuania,54.7708,24.6428,1,13151.0,structure,,,False
Embalse Nuclear Power Station,PowerStation,Argentina,-32.232,-64.443,1,13037.0,structure,,,False
Energy Brix Power Station,PowerStation,Australia,-38.2544,146.414,1,8945.0,structure,,,True
Frimmersdorf Power Station,PowerStation,Germany,51.0564,6.57694,1,6914.0,structure,,,False
Futtsu Power Station,PowerStation,Japan,35.3431,139.834,1,5960.0,structure,,,False
Gansu Wind Farm,PowerStation,People's_Republic_of_China,40.2,96.9,1,107113.0,structure,,,False
Gibson Generating Station,PowerStation,United_States,38.3719,-87.7672,1,24657.0,structure,,,False
Glenwood Generating Station,PowerStation,United_States,40.8275,-73.6475,1,6184.0,structure,,,False
Fântânele-Cogealac Wind Farm,PowerStation,Romania,44.5903,28.5653,1,30293.0,structure,,,False
Eggborough power station,PowerStation,England,53.7116,-1.1269,1,59205.0,structure,,,True
McMaster Nuclear Reactor,PowerStation,Canada,43.2612,-79.9214,1,12910.0,structure,,,False
Medupi Power Station,PowerStation,South_Africa,-23.7,27.55,1,79038.0,structure,,,False
Rutenberg Power Station,PowerStation,Israel,31.6275,34.5161,1,7499.0,structure,,,True
Rybnik Power Station,PowerStation,Poland,50.1333,18.5333,1,5465.0,structure,,,False
